<?xml version="1.0" encoding="UTF-8" standalone="yes"?>
<gpx xmlns="http://www.topografix.com/GPX/1/1" version="1.1" creator="panneaux-election.fr">
    <rte>
        <rtept lon="7.057571" lat="43.642728">
            <name>Val d&#39;Azur - route de Biot - avant l&#39;entrée du domaine, côté droit</name>
        </rtept>
        <rtept lon="7.147911" lat="43.66325">
            <name>Avenue Marcel Pagnol, sur le garde-corps du cours d&#39;eau La Cagne face à la Crêche Estérella et à la rue Charles Perrault</name>
        </rtept>
        <rtept lon="7.147911" lat="43.66325">
            <name>Angle boulevard Kennedy/avenue de Cannes, sur la clôture de l&#39;hippodrome</name>
        </rtept>
        <rtept lon="7.147911" lat="43.66325">
            <name>Rue Bir Hakeim, sur le garde-fou du cours d&#39;eau La Cagne juste avant les feux tricolores de l&#39;avenue de Nice</name>
        </rtept>
        <rtept lon="7.147911" lat="43.66325">
            <name>Square Bourdet, sur la clôture de la maternelle Renoir et à la station des bus</name>
        </rtept>
        <rtept lon="7.147911" lat="43.66325">
            <name>Boulevard du Maréchal Juin, sous le pont de la SNCF et autoroute</name>
        </rtept>
        <rtept lon="7.147911" lat="43.66325">
            <name>Avenue Cyrille Besset/Canebiers Sud, sur le garde-corps juste avant le feu tricolore de la Bégude (pont de l&#39;autoroute)</name>
        </rtept>
        <rtept lon="7.147911" lat="43.66325">
            <name>Quartier du Béal, à hauteur du 32 Avenue Auguste Renoir, sur le garde-corps du parking jouxtant les Etablissements ALBAX</name>
        </rtept>
        <rtept lon="7.147911" lat="43.66325">
            <name>36/38 Chemin du Val Fleuri, sur la clôture des résidences Villa FIORI</name>
        </rtept>
        <rtept lon="7.147911" lat="43.66325">
            <name>Avenue Ziem/chemin du Val Fleuri, sur la clôture de l&#39;immeuble Le Bellevue, juste avant le feu tricolore au bas de l&#39;avenue Ziem, côté pair</name>
        </rtept>
        <rtept lon="7.147911" lat="43.66325">
            <name>Avenue Ziem/chemin du Val Fleuri, sur la clôture de l&#39;immeuble Le Bellevue, juste avant le feu tricolore au bas de l&#39;avenue Ziem, côté pair</name>
        </rtept>
        <rtept lon="7.147911" lat="43.66325">
            <name>Avenue de Nice, juste après les Résidences Le Lido et face à l&#39;allée des Lantanas</name>
        </rtept>
        <rtept lon="7.147911" lat="43.66325">
            <name>Rond point Gustave Durante, sur la clôture jouxtant le rond point</name>
        </rtept>
        <rtept lon="7.147911" lat="43.66325">
            <name>Rond point du DRAKKAR/avenue des Alpes, au sud du rond point, au droit du cours d&#39;eau Le Malvan</name>
        </rtept>
        <rtept lon="7.1472227" lat="43.6637051">
            <name>Ecole Jules Ferry - Place Gabriel sur la clôture de l&#39;école Jules Ferry</name>
        </rtept>
        <rtept lon="7.1589538" lat="43.662142">
            <name>Collège les Bréguières - la clôture du collège à gauche du portail d&#39;accès à l&#39;établissement</name>
        </rtept>
        <rtept lon="7.1593667" lat="43.6574188">
            <name>Groupe scolaire Gambetta - 1 emplacement, rue des Ecoles, devant l&#39;établissement et sur la clôture de l&#39;Ecole</name>
        </rtept>
        <rtept lon="7.1675072" lat="43.6670937">
            <name>Salle Espace Val Fleuri - 1 emplacement, 99, chemin du Val Fleuri, sur la clôture du jardin d&#39;enfants face à la salle</name>
        </rtept>
        <rtept lon="7.173629" lat="43.660379">
            <name>Angle chemin du Val Fleuri/Avenue de Nice, dans le jardin commmunal devant la villa au n° 143 avenue de Nice</name>
        </rtept>
        <rtept lon="7.1792956" lat="43.6614978">
            <name>Avenue Pierre Sauvaigo (Square Fragonard)</name>
        </rtept>
        <rtept lon="7.188211" lat="43.662154">
            <name>Avenue des Magnolias (accès par la RN7 direction Institut Arnault Tzanck)</name>
        </rtept>
        <rtept lon="7.190874" lat="43.6711403">
            <name>Avenue Général de Gaulle de l&#39;école maternelle) Djibouti</name>
        </rtept>
        <rtept lon="7.1904449" lat="43.6711073">
            <name>Square Renoir - Les vespins, angle avenue des Mouettes et avenue des glycines</name>
        </rtept>
        <rtept lon="7.191296" lat="43.673635">
            <name>Avenue du 11 Novembre ( Trottoir côté foyer des anciens)</name>
        </rtept>
        <rtept lon="7.1919251" lat="43.6745279">
            <name>Parking Parc François Layet (côté village face à la rue Desjobert)</name>
        </rtept>
        <rtept lon="7.19199705124" lat="43.6758880615">
            <name>Avenue Pierre Coubertin ( à hauteur du Commissariat de Police) Sur le pont</name>
        </rtept>
        <rtept lon="7.1917937" lat="43.6762075">
            <name>222, Esplanade du Levant (Trottoir côté mairie) côté var</name>
        </rtept>
        <rtept lon="7.189273" lat="43.679784">
            <name>Rue Albert Camus (en face du complexe sportif) Pagnol</name>
        </rtept>
        <rtept lon="7.182377" lat="43.685831">
            <name>Allée des écureuils ( Trottoir côté Halte garderie) Lou Nistou</name>
        </rtept>
        <rtept lon="7.182349" lat="43.703004">
            <name>Allée des Agriculteurs, Complexe sportif des Iscles Contre le grillage</name>
        </rtept>
        <rtept lon="7.178321" lat="43.707502">
            <name>Route de la Baronne (petit parking devant école ste Pétronille)</name>
        </rtept>
        <rtept lon="7.172488" lat="43.701639">
            <name>Chemin de la Tour Carrée (Trottoir côté école maternelle Montaleigne)</name>
        </rtept>
        <rtept lon="7.178552" lat="43.674017">
            <name>Chemin des Plateaux Fleuris - angle avenue des Plantiers Contre le Grillage</name>
        </rtept>
        <rtept lon="7.182772" lat="43.675426">
            <name>Corniche d&#39;Agrimont (Château d&#39;eau)</name>
        </rtept>
        <rtept lon="7.1863896" lat="43.6746866">
            <name>Impasse des Bigaradiers (Proche bibliothèque Municipale) Sur la route face à la bibliothèque</name>
        </rtept>
        <rtept lon="7.1878568" lat="43.6745002">
            <name>Avenue des plans (Proche école michelis 1) Face à l&quot;école Michelis 2</name>
        </rtept>
        <rtept lon="7.190062" lat="43.67348">
            <name>177, Avenue Général Leclerc (Trottoir côté conservatoire de musique)</name>
        </rtept>
        <rtept lon="7.189545" lat="43.672466">
            <name>Allée pasteur à l&#39;angle avenue général de Gaulle (côté jardin)</name>
        </rtept>
        <rtept lon="7.189545" lat="43.672466">
            <name>418, Esplanade du Levant (proche du gymnase Municipal) Salle F</name>
        </rtept>
        <rtept lon="7.189545" lat="43.672466">
            <name>Avenue Pierre Ziller (côté sud) Face centrale Téléphonique</name>
        </rtept>
        <rtept lon="7.189545" lat="43.672466">
            <name>Route de Saint Jeannet (à hauteur du N° quartier Montaleigne) Face au chemin Fahnestock</name>
        </rtept>
        <rtept lon="7.189545" lat="43.672466">
            <name>Avenue Paul Cézanne ( Proche de l&#39;abris bus) A droite du portail de l&#39;école contre le grillage</name>
        </rtept>
        <rtept lon="7.189545" lat="43.672466">
            <name>Avenue Jean Aicard (Vallon de Janeou - Angle route des Pugets) Près de l&#39;arrêt de bus</name>
        </rtept>
        <rtept lon="7.189545" lat="43.672466">
            <name>Moyenne Corniche des pugets à hauteur du N° 3184 Montée Monica</name>
        </rtept>
        <rtept lon="7.189545" lat="43.672466">
            <name>Avenue Pierre Ziller (côté nord)) A gauche du portail du centre de loisir</name>
        </rtept>
        <rtept lon="7.189545" lat="43.672466">
            <name>Rue Jean Baptiste Bermond derrière l&#39;école maternelle) Djibouti</name>
        </rtept>
        <rtept lon="7.189545" lat="43.672466">
            <name>Esplanade Edmond Jouhaud, Piscine Municipale Contre le Garde Corps</name>
        </rtept>
        <rtept lon="7.189545" lat="43.672466">
            <name>Avenue Louis Ravet (trottoir devant l&#39;école) Contre le grillage à droite du portail</name>
        </rtept>
        <rtept lon="7.189545" lat="43.672466">
            <name>Avenue francis Teisseire, Côté Var, face à l&#39;avenue des Orangers Face à la crêche Les Renardeaux</name>
        </rtept>
        <rtept lon="7.189545" lat="43.672466">
            <name>Rue Jean Giono ( au dessus écoles Castillon 1 et 2) Sur le Garde Corps</name>
        </rtept>
        <rtept lon="7.189545" lat="43.672466">
            <name>Chemin Saint Hubert ( Le long de la clôture du Tennis Vauban - Les vespins) Contre le Garde Corps</name>
        </rtept>
        <rtept lon="7.1937881" lat="43.6656668">
            <name>Rond Point Avenue du Ponant - Avenue Frédéric Mistral Face à Atoll Beach</name>
        </rtept>
        <rtept lon="7.1446486" lat="43.6598751">
            <name>Ecole maternelle Les Canebiers - 1 emplacement, Rue Charles Perrault, sur la clôture de l&#39;école maternelle</name>
        </rtept>
        <rtept lon="7.144947" lat="43.659769">
            <name>Ecoles primaires Alphonse Daudet I et II - 1 emplacement, avenue de la Gare, sur la clôture du parking des écoles Alphonse Daudet I et II</name>
        </rtept>
        <rtept lon="7.144947" lat="43.659769">
            <name>Ecole primaire de La Pinède - 1 emplacement, rue Massenet, sur la clôture de l&#39;école</name>
        </rtept>
        <rtept lon="7.132922" lat="43.644308">
            <name>Avenue de la Bermone - à côté de la cabine téléphonique</name>
        </rtept>
        <rtept lon="7.130869" lat="43.633238">
            <name>Ecole primaire des Maurettes A et B - 456 avenue du Dr Julien Lefebvre - à l&#39;angle de l&#39;avenue du Dr Julien Lefebvre et la montée pour laccès à l&#39;espace culturel André Malraux</name>
        </rtept>
        <rtept lon="7.127446" lat="43.625862">
            <name>Avenue du Loubet - au niveau de l&#39;arrêt de bus près entreprise Roatta</name>
        </rtept>
        <rtept lon="7.1158947" lat="43.6274295">
            <name>Avenue de Vaugrenier - le pont de l&#39;autoroute au niveau des Cabots</name>
        </rtept>
        <rtept lon="7.057571" lat="43.642728">
            <name>Val d&#39;Azur - route de Biot - avant l&#39;entrée du domaine, côté droit</name>
        </rtept>
        <rtept lon="7.1232774" lat="43.6329671">
            <name>Avenue des Maurettes - à la sortie d&#39;Intermarché côté Iveco</name>
        </rtept>
        <rtept lon="7.125394" lat="43.632532">
            <name>Corniche des Maurettes - après le pont de l&#39;autoroute à gauche des zébras</name>
        </rtept>
        <rtept lon="7.139086" lat="43.642156">
            <name>Salle René Tosti - 16 avenue de la Mer - le grillage du jeu de boules en face de l&#39;Office du Tourisme</name>
        </rtept>
        <rtept lon="7.1295365" lat="43.651984">
            <name>Salle d&#39;accueil des sportifs - Parc des Sports avenue des Plans - le grillage du rond point du Parc des Sports</name>
        </rtept>
        <rtept lon="7.1263208" lat="43.6541096">
            <name>Centre Nautique - boulevard Eric Tabarly - le grillage à l&#39;entrée du Centre Nautique</name>
        </rtept>
        <rtept lon="7.12927" lat="43.656595">
            <name>Avenue des Ferrayonnes - la rembarde du Cub&#39;J</name>
        </rtept>
        <rtept lon="7.1219167" lat="43.6580718">
            <name>Hôtel de Ville - situé sur la Place de l&#39;Hôtel de Ville</name>
        </rtept>
        <rtept lon="7.121465" lat="43.657949">
            <name>Groupe Scolaire Antony Fabre A et B - avenue des Rives - le rond point face à Marina Airport</name>
        </rtept>
        <rtept lon="7.121465" lat="43.657949">
            <name>Montée San Sébastian - l&#39;ex garage du Tunnel côté droit avant la montée San Sébastian</name>
        </rtept>
        <rtept lon="7.121465" lat="43.657949">
            <name>Salle Joseph Donon A et B - Jardin Artusi - situé sur le muret sous l&#39;abribus face au CCAS (descente accès parking Charles de Gaulle)</name>
        </rtept>
        <rtept lon="7.1196066" lat="43.6593511">
            <name>Ecole primaire Saint Georges - Avenue de la Liberté - à l&#39;entrée de l&#39;école</name>
        </rtept>
        <rtept lon="7.117445" lat="43.66508">
            <name>Avenue Antony Fabre - le trottoir de l&#39;Espace de Loisir des Espérès</name>
        </rtept>
        <rtept lon="7.123236" lat="43.665607">
            <name>Avenue de la Colle - au niveau de l&#39;abribus des Hameaux du Soleil</name>
        </rtept>
        <rtept lon="7.105784" lat="43.687079">
            <name>Ancien cimetière route de St Paul, sur le parking du cimetière</name>
        </rtept>
        <rtept lon="7.103594" lat="43.685656">
            <name>Rond-point des Arnoux, le long du muret sous les oliviers, en sortant du village sur la droite</name>
        </rtept>
        <rtept lon="7.103594" lat="43.685656">
            <name>Ecole Pierre Teisseire, avenue Théo Giordan, sur la grille d&#39;entrée principale</name>
        </rtept>
        <rtept lon="7.103594" lat="43.685656">
            <name>Ecole Daniel Pennac, 47 chemin du Béal, le long du groupe scolaire sur la clôture située chemin des Campons</name>
        </rtept>
        <rtept lon="7.103594" lat="43.685656">
            <name>Chemin des Rouberts, au n°180, en face du n°151</name>
        </rtept>
        <rtept lon="7.103594" lat="43.685656">
            <name>Boulevard Pierre Teisseire, le long du stade, en face de la rue Clara Gasquet</name>
        </rtept>
        <rtept lon="7.103594" lat="43.685656">
            <name>salle polyvalente Jeu de Paume,rue Clara Gasquet en montant à droite</name>
        </rtept>
        <rtept lon="7.103594" lat="43.685656">
            <name>Chemin de l&#39; Escours, en face du chemin de la Luona</name>
        </rtept>
        <rtept lon="7.103181" lat="43.686603">
            <name>chemin du Canadel, le long du mur en montant à droite</name>
        </rtept>
        <rtept lon="7.101785" lat="43.688824">
            <name>Rue de la Victoire, en face du numéro 62 rue de la Victoire, devant le terrain vague</name>
        </rtept>
        <rtept lon="7.1151799" lat="43.7011741">
            <name>Place de la Mairie, sur le mur vers le Musée</name>
        </rtept>
        <rtept lon="7.121706" lat="43.695784">
            <name>RD7 route de la Colle/Saint Roch, sur la barrière de sécurité</name>
        </rtept>
        <rtept lon="7.121706" lat="43.695784">
            <name>Carrefour des Serres et chemin du Pilon sur le mur</name>
        </rtept>
        <rtept lon="7.121706" lat="43.695784">
            <name>Carrefour Chemin de Léouvé/RD 36 route de Vence, contre la barrière de sécurité</name>
        </rtept>
        <rtept lon="7.121706" lat="43.695784">
            <name>Carrefour Chemin de la Calada/Chemin du Cercle, contre le garde corps</name>
        </rtept>
        <rtept lon="7.121706" lat="43.695784">
            <name>Carrefour chemin de Saint Etienne/route de la Colle,contre le parapet en pierre</name>
        </rtept>
        <rtept lon="7.121706" lat="43.695784">
            <name>Carrefour chemin des Espinets/Bastide Rouge entrée sud, sur la barrière de sécurité</name>
        </rtept>
        <rtept lon="7.121706" lat="43.695784">
            <name>Carrefour Malvan/Chemin de la Pounchounière, sur le pont</name>
        </rtept>
        <rtept lon="7.121706" lat="43.695784">
            <name>Carrefour Chemin du Cercle/Chemin de Rome, sur la barrière de sécurité</name>
        </rtept>
        <rtept lon="7.121706" lat="43.695784">
            <name>Chemin des Gardettes, Passe Prest, contre le mur parking</name>
        </rtept>
        <rtept lon="7.1457995" lat="43.6668039">
            <name>Ecole du Vieux Bourg - contre le mur de l&#39;école et de la mairie annexe, place du Docteur Maurel</name>
        </rtept>
        <rtept lon="7.1457995" lat="43.6668039">
            <name>Ecole primaire du Val Fleuri - 1 emplacement, chemin du Vallon des Vaux, sur la clôture de l&#39;école</name>
        </rtept>
        <rtept lon="7.145494" lat="43.6668401">
            <name>Mairie annexe du Cros de Cagnes - Promenade de la Plage, Face à la Mairie, sur le trottoir côté plage,</name>
        </rtept>
        <rtept lon="7.148250103" lat="43.6631011963">
            <name>Mairie de Cagnes-sur-Mer- Place de la Mairie, contre le mur de l&#39;école du logis</name>
        </rtept>
        <rtept lon="7.057571" lat="43.642728">
            <name>Val d&#39;Azur - route de Biot - avant l&#39;entrée du domaine, côté droit</name>
        </rtept>
    </rte>
</gpx>
