<?xml version="1.0" encoding="UTF-8" standalone="yes"?>
<gpx xmlns="http://www.topografix.com/GPX/1/1" version="1.1" creator="panneaux-election.fr">
    <rte>
        <rtept lon="7.1056753" lat="43.7266005">
            <name>Avenue Maréchal Foch - mur de l&#39;ONAC</name>
        </rtept>
        <rtept lon="7.184039" lat="43.946172">
            <name>A Roussillon, Place du Monument (Grand Joun) face à la mairie annexe</name>
        </rtept>
        <rtept lon="7.194214" lat="43.852263">
            <name>Mairie annexe de Bonson, 74 route du Vieux Moulin Quartier le Gabre, à côté de l&#39;école</name>
        </rtept>
        <rtept lon="7.13111782074" lat="43.9273376465">
            <name>Mairie de Malaussène Place du Centenaire</name>
        </rtept>
        <rtept lon="7.01585388184" lat="43.9959907532">
            <name>14, place René Boetti à proximité de la mairie</name>
        </rtept>
        <rtept lon="6.991323" lat="43.990203">
            <name>Mairie, place Yvan Féraud</name>
        </rtept>
        <rtept lon="7.034848" lat="44.031545">
            <name>A l&#39;entrée du village à côté de la cabine téléphonique</name>
        </rtept>
        <rtept lon="6.986541" lat="44.095646">
            <name>rue du Comté de Beuil – devant la salle des Fêtes</name>
        </rtept>
        <rtept lon="6.908333" lat="44.117242">
            <name>Salle Valbergane Maison Valbergane VALBERG</name>
        </rtept>
        <rtept lon="6.908333" lat="44.117242">
            <name>Nouvelle salle du conseil municipal PEONE le long du grillage</name>
        </rtept>
        <rtept lon="6.812901" lat="44.026806">
            <name>Quartier la Salette (ancienne Gare)</name>
        </rtept>
        <rtept lon="6.852724" lat="44.090376">
            <name>Place de Provence, devant les gîtes du Mercantour</name>
        </rtept>
        <rtept lon="6.852724" lat="44.090376">
            <name>Place Napoléon III, côté sud, en face des n° 3 et 5</name>
        </rtept>
        <rtept lon="6.8358736" lat="44.0874652">
            <name>Place de la mairie face à l&#39;entrée de la mairie</name>
        </rtept>
        <rtept lon="6.832038" lat="44.128537">
            <name>A l&#39;entrée du village</name>
        </rtept>
        <rtept lon="6.7956515" lat="44.120275">
            <name>Rue de la Mairie - à droite de l&#39;entrée de la Mairie</name>
        </rtept>
        <rtept lon="6.76108789444" lat="44.1425933838">
            <name>Mairie de saint Martin d&#39;Entraunes cour de la mairie</name>
        </rtept>
        <rtept lon="6.7236729" lat="44.2391063">
            <name>Mairie, Parvis de la Maison de la Montagne</name>
        </rtept>
        <rtept lon="6.7258849144" lat="43.8483963013">
            <name>devant la mairie</name>
        </rtept>
        <rtept lon="6.7575772" lat="43.8639329">
            <name>Mairie de Briançonnet, devant le bâtiment dénommé &quot;espace loisir&quot; (ancien cercle)</name>
        </rtept>
        <rtept lon="6.8031813" lat="43.8654873">
            <name>Mairie de Gars, entrée du village parking visiteurs, le Sarré</name>
        </rtept>
        <rtept lon="6.82648" lat="43.890312">
            <name>21 rue de la mairie, sur le mur en face de la mairie</name>
        </rtept>
        <rtept lon="6.861306" lat="43.883798">
            <name>Mairie de Les Mujouls : 1, place Noël Rainero la place Noël Rainero</name>
        </rtept>
        <rtept lon="6.863136" lat="43.888682">
            <name>2, place du Château à proximité de la mairie</name>
        </rtept>
        <rtept lon="6.906231" lat="43.883273">
            <name>Place du village</name>
        </rtept>
        <rtept lon="6.964755" lat="43.8720274">
            <name>Place de l&#39;Eglise, parvis hôtel de ville, le long du mur nord de l&#39;Eglise environ 6 m. de la mairie</name>
        </rtept>
        <rtept lon="6.914605" lat="43.8575">
            <name>Départementale 10, sous la voûte de l&#39;auberge à côté de la boite à lettre de La Poste</name>
        </rtept>
        <rtept lon="6.85876703262" lat="43.843082428">
            <name>16 Route de Saint-Auban en face de la mairie</name>
        </rtept>
        <rtept lon="6.78538" lat="43.795099">
            <name>Mairie annexe de Thorenc, 1 avevue du Belvédère, devant la salle de la mairie annexe</name>
        </rtept>
        <rtept lon="6.734183" lat="43.799353">
            <name>Rue principale à la Ferrière</name>
        </rtept>
        <rtept lon="6.708281" lat="43.79644">
            <name>place Jean-Antoine David</name>
        </rtept>
        <rtept lon="6.7851099968" lat="43.773399353">
            <name>Mairie d&#39;Andon, place Victorin Bonhomme à gauche de l&#39;entrée de la salle des fête</name>
        </rtept>
        <rtept lon="6.72909021378" lat="43.7787017822">
            <name>Place de la Mairie - 06750 CAILLE</name>
        </rtept>
        <rtept lon="6.700622" lat="43.772742">
            <name>Ecole du Pra Redon, 160 rue de la Gendarmerie</name>
        </rtept>
        <rtept lon="6.782535" lat="43.730632">
            <name>Place du Lavoir sur le mur en pierres face aux marronniers</name>
        </rtept>
        <rtept lon="6.833946" lat="43.70182">
            <name>Route de la Siagne (sur le mur du boulodrome)</name>
        </rtept>
        <rtept lon="6.84747" lat="43.698625">
            <name>Salle l&#39;Oustaou d&#39;Anaïs quartier les Ferrages la clôture du skate park</name>
        </rtept>
        <rtept lon="6.848869" lat="43.698448">
            <name>Rue de l&#39;Hôpital (face à la mairie)</name>
        </rtept>
        <rtept lon="6.848823" lat="43.698202">
            <name>Chapelle Saint Esprit rue Adrien Guébhard</name>
        </rtept>
        <rtept lon="6.882444" lat="43.662441">
            <name>Rond point des tennis</name>
        </rtept>
        <rtept lon="6.875" lat="43.6558990479">
            <name>Rue Frédéric Mistral, en face de la mairie</name>
        </rtept>
        <rtept lon="6.857375" lat="43.648179">
            <name>Boulevard du Docteur Sauvy, en face de la mairie, à côté de l&#39;arrêt de bus</name>
        </rtept>
        <rtept lon="6.845817" lat="43.640023">
            <name>rue des Ormeaux au village ancien, devant le bureau de vote</name>
        </rtept>
        <rtept lon="6.7960305" lat="43.6512454">
            <name>Chemin de la Chaux - Place de l&#39;Ecole - Parking commun à l&#39;école et au magasin Carrefour, à proximité du grand portail d&#39;entrée de l&#39;école</name>
        </rtept>
        <rtept lon="6.791988" lat="43.648325">
            <name>Place Pierre Charpy, lieu-dit &quot;Les Pradons&quot;, devant l&#39;entrée principale du cimetière (Chapelle Notre-Dame de Sardaigne)</name>
        </rtept>
        <rtept lon="6.819603" lat="43.629209">
            <name>Hameau des Veyans - Place H. Autran</name>
        </rtept>
        <rtept lon="6.843378" lat="43.630985">
            <name>mairie, avenue de l&#39;hôtel de ville, devant le bureau de vote</name>
        </rtept>
        <rtept lon="6.896552" lat="43.621488">
            <name>Ecole Saint Exupéry, 250, avenue de Peygros - devant l&#39;école, contre le mur de clôture du parking</name>
        </rtept>
        <rtept lon="6.874667" lat="43.641804">
            <name>Parking Lebon- avenue de Boutiny à coté du n°10 maison des associations, sur le mur</name>
        </rtept>
        <rtept lon="6.875261" lat="43.643469">
            <name>34, boulevard du Général de Gaulle - Place Gervais Court, sur des barrières</name>
        </rtept>
        <rtept lon="6.874959" lat="43.642445">
            <name>Hôtel de Ville, 11, boulevard du Général de Gaulle – devant la mairie contre les arbres sur des barrières</name>
        </rtept>
        <rtept lon="6.876985" lat="43.6409416">
            <name>Place du centenaire - sur la place, contre le grillage de l&#39;école Mirabeau</name>
        </rtept>
        <rtept lon="6.876007" lat="43.637756">
            <name>11, chemin du Suye - complexe sportif, contre le grillage</name>
        </rtept>
        <rtept lon="6.87976" lat="43.642073">
            <name>Ecole Frédéric Mistral, 165, avenue de Boutiny - devant l&#39;école, contre le grillage de clôture de l&#39;école</name>
        </rtept>
        <rtept lon="6.900106" lat="43.650393">
            <name>Ecole de Saint-François - 163 boulevard Schley – barrière face entrée</name>
        </rtept>
        <rtept lon="6.9097372" lat="43.6492004">
            <name>Parking de la salle des associations des Marronniers - chemin de Sainte Anne par le chemin de la Pouiraque supérieure</name>
        </rtept>
        <rtept lon="6.889319" lat="43.610182">
            <name>2, chemin de l&#39;Appié, contre de grillage de protection du mur</name>
        </rtept>
        <rtept lon="6.9298701" lat="43.6508753">
            <name>Ecole Pra d&#39;Estang de Saint-Claude - 46 ch des Capucins – barrière face entrée</name>
        </rtept>
        <rtept lon="6.925826" lat="43.654626">
            <name>Avenue Pierre Sémard - GRASSE - rampe de la Gare SNCF</name>
        </rtept>
        <rtept lon="6.9433949" lat="43.6590041">
            <name>Parking de l&#39;école de Saint-Mathieu - 118 rte de Saint Mathieu – sur grille parking</name>
        </rtept>
        <rtept lon="6.9298285" lat="43.6578216">
            <name>Rampe - Chemin du Lac – face au Trinquet</name>
        </rtept>
        <rtept lon="6.924098" lat="43.657147">
            <name>Crêche du Peyrard - Avenue Sidi Brahim – sur grilles</name>
        </rtept>
        <rtept lon="6.924098" lat="43.657147">
            <name>Espace Chiris, Avenue de Provence -rampe face immeuble Le Sud</name>
        </rtept>
        <rtept lon="6.924098" lat="43.657147">
            <name>Rond point du Centre Aéré des Aspres - Avenue Emmanuel Rouquier</name>
        </rtept>
        <rtept lon="6.9213436" lat="43.6572874">
            <name>Palais des Congrés - 22 Cours Honoré Cresp - rampe entrée parking</name>
        </rtept>
        <rtept lon="6.918337" lat="43.658091">
            <name>Avenue Yves Emmanuel Baudoin - rampe face à la résidence Belvédère</name>
        </rtept>
        <rtept lon="6.92376" lat="43.662418">
            <name>Avenue Thiers - rampe proximité avenue du 11 Novembre</name>
        </rtept>
        <rtept lon="6.925639" lat="43.659984">
            <name>Boulevard Gambetta - rampe face débouché de la traverse Riou Blanquet</name>
        </rtept>
        <rtept lon="6.9302719" lat="43.6602011">
            <name>Avenue Saint Exupéry - rampe de la piscine Harjes</name>
        </rtept>
        <rtept lon="6.9436599" lat="43.6656564">
            <name>Saint Jean - rampe place de la Chapelle Saint Jean</name>
        </rtept>
        <rtept lon="6.958121" lat="43.680768">
            <name>Allée L. Ménager – rampe - MAGAGNOSC -</name>
        </rtept>
        <rtept lon="6.958567" lat="43.681116">
            <name>Avenue Auguste Renoir - MAGAGNOSC</name>
        </rtept>
        <rtept lon="6.955127" lat="43.783058">
            <name>Salle Polyvalente Route Neuve, à droite de l&#39;entrée de la salle polyvalente</name>
        </rtept>
        <rtept lon="6.945648" lat="43.795776">
            <name>Allée de la Ferrage (face au Monument aux Morts)</name>
        </rtept>
        <rtept lon="7.0486004" lat="43.7919422">
            <name>Parking de l&#39;Ecole communale - emplacement sur la clôture de l&#39;école</name>
        </rtept>
        <rtept lon="7.09651994705" lat="43.8088989258">
            <name>Devant la mairie 31 Auto Carriéro</name>
        </rtept>
        <rtept lon="7.123458" lat="43.825384">
            <name>Mairie, emplacement stationnement contre mairie, côté gauche</name>
        </rtept>
        <rtept lon="7.181586" lat="43.786523">
            <name>Rond point Gattières - les Plans (Carros) - intersection RM1 RM 2210</name>
        </rtept>
        <rtept lon="7.189899" lat="43.776576">
            <name>Parking rue de la Beïlouno et rue de l’Espère</name>
        </rtept>
        <rtept lon="7.191472" lat="43.775747">
            <name>Ecole Laurent Spinelli – 15 Rue du Bosquet</name>
        </rtept>
        <rtept lon="7.190943" lat="43.774743">
            <name>Rue de l’Aspre (sur les grilles du Jardin de la Ginestière)</name>
        </rtept>
        <rtept lon="7.190129" lat="43.773739">
            <name>Ecole Paul Eluard - rue des Arbousiers, impasse des Bruyères</name>
        </rtept>
        <rtept lon="7.192107" lat="43.77394">
            <name>CFA - 9 boulevard de la Colle Belle</name>
        </rtept>
        <rtept lon="7.193696" lat="43.773207">
            <name>Ecole Boris Vian – 2 Rue des Selves</name>
        </rtept>
        <rtept lon="7.192626" lat="43.772898">
            <name>Parvis de l’hôtel de Ville – 2 Rue de l’Eusière (à droite et gauche de l’entrée Garage Municipal)</name>
        </rtept>
        <rtept lon="7.193135" lat="43.772351">
            <name>Ecovie - 315 route de la ZAC de la Grave</name>
        </rtept>
        <rtept lon="7.193135" lat="43.772351">
            <name>5360 route métropolitaine 1 (barrière pont carrefour du Pistou</name>
        </rtept>
        <rtept lon="7.193135" lat="43.772351">
            <name>Boulevard Colle Belle Rond point P Langevin (barrière en face chemin de la Solidarité)</name>
        </rtept>
        <rtept lon="7.193135" lat="43.772351">
            <name>Placette rue de la Vésubie et rue du Loup</name>
        </rtept>
        <rtept lon="7.19189" lat="43.771195">
            <name>Ecole Jean MOULIN – 2 Rue des Abeilles</name>
        </rtept>
        <rtept lon="7.191164" lat="43.769175">
            <name>Avenue des Cigales (face au n°28) côté parking public</name>
        </rtept>
        <rtept lon="7.1915453" lat="43.766708">
            <name>Avenue des Cigales (face au n°41) au dessus du pont</name>
        </rtept>
        <rtept lon="7.192647" lat="43.767206">
            <name>Place du Figaret</name>
        </rtept>
        <rtept lon="7.176969" lat="43.760204">
            <name>Rue Torrin et Grassi, devant le bureau de vote</name>
        </rtept>
        <rtept lon="7.145075" lat="43.7498387">
            <name>Place René Veyssi</name>
        </rtept>
        <rtept lon="7.142751" lat="43.746345">
            <name>Rond-Point du Peyron : CD 2210 (route de Gattières)</name>
        </rtept>
        <rtept lon="7.142046" lat="43.74696">
            <name>La salle Saint-Jean Baptiste : rue de la Ferrage</name>
        </rtept>
        <rtept lon="7.1400928" lat="43.7464266">
            <name>Ecole de la Ferrage : rue de la Ferrage</name>
        </rtept>
        <rtept lon="7.124389" lat="43.735603">
            <name>Route de St Jeannet - plate-forme chemin du Baou des Noirs</name>
        </rtept>
        <rtept lon="7.1056753" lat="43.7266005">
            <name>Avenue Maréchal Foch - mur de l&#39;ONAC</name>
        </rtept>
        <rtept lon="7.088569" lat="43.716632">
            <name>Chemin de la Sine - rond point du souvenir</name>
        </rtept>
        <rtept lon="7.095835" lat="43.72382">
            <name>Avenue Rhin et Danube - niveau Ciffreo Bona</name>
        </rtept>
        <rtept lon="7.1072986" lat="43.7226851">
            <name>Rond Point de l&#39;Ara - devant la grille des locaux de la Police municipale</name>
        </rtept>
        <rtept lon="7.108143" lat="43.723928">
            <name>Avenue des Poilus - devant le lavoir</name>
        </rtept>
        <rtept lon="7.120671" lat="43.731142">
            <name>Avenue de Provence - niveau lotissement &quot;Les Vergers&quot;</name>
        </rtept>
        <rtept lon="7.120692" lat="43.727719">
            <name>Chemin Ste Colombe - parking des bus scolaires</name>
        </rtept>
        <rtept lon="7.113404" lat="43.72265">
            <name>Place Clemenceau - sur le côté de la cathédrale</name>
        </rtept>
        <rtept lon="7.119114" lat="43.722223">
            <name>Avenue Général Leclerc - le long du parking Toreille</name>
        </rtept>
        <rtept lon="7.112432" lat="43.722265">
            <name>Avenue Colonel Méyère le long de la clôture du parking de la piscine, emplacement commun au 13 bureaux</name>
        </rtept>
        <rtept lon="7.111671" lat="43.722324">
            <name>Place de Grand Jardin - entrée du parking</name>
        </rtept>
        <rtept lon="7.109684" lat="43.718786">
            <name>Boulevard Joseph Ricord - angle boulevard Reine Jeanne</name>
        </rtept>
        <rtept lon="7.119854" lat="43.714178">
            <name>Avenue Emile Hugues - embranchement ancien chemin de St Paul</name>
        </rtept>
        <rtept lon="7.127828" lat="43.71256">
            <name>Route de Cagnes - lieu-dit &quot;Les Cayrons&quot; après l&#39;arrêt de bus</name>
        </rtept>
        <rtept lon="7.128139" lat="43.718521">
            <name>Chemin de Vosgelade - square Jardin de Matisse</name>
        </rtept>
        <rtept lon="7.155831" lat="43.741887">
            <name>Ecole des Prés : chemin de la Billoire</name>
        </rtept>
        <rtept lon="7.15034" lat="43.736161">
            <name>Bureau du stade du Mont Gros - CD 1403 route de Saint Laurent (sur le parking devant l&#39;entrée du stade)</name>
        </rtept>
        <rtept lon="7.1508607" lat="43.7223542">
            <name>Mairie annexe de la Baronne - 2844 chemin Allo Marcellin (Petit parking en face de la Mairie Annexe)</name>
        </rtept>
        <rtept lon="7.152284" lat="43.722193">
            <name>6 rue Louis Michel Féraud (coursive rez-de rue Mairie)</name>
        </rtept>
        <rtept lon="7.152146" lat="43.721658">
            <name>Cantine village école primaire Marcel Pagnol - (Au bout du parking inférieur)</name>
        </rtept>
        <rtept lon="7.151105" lat="43.719133">
            <name>Basse Gaude - CD 7396 route de Cagnes (Contre le mur du Centre Culturel La Coupole)</name>
        </rtept>
        <rtept lon="7.156717" lat="43.715319">
            <name>Le Peymont - 475 chemin du Peymont (Angle chemin du Peymont et Chemin Le Barnier)</name>
        </rtept>
        <rtept lon="7.158875" lat="43.734884">
            <name>Le Plan du bOIS - CD 118 route de Saint Laurent (A côté de l’abri bus - face au garage Baron)</name>
        </rtept>
        <rtept lon="7.1709443" lat="43.7290966">
            <name>Les Vacquières - CD 118 – route de Saint Laurent (Au carrefour des routes de La Gaude - Saint Jeannet - Saint Laurent - au niveau de l&#39;arrêt de bus)</name>
        </rtept>
        <rtept lon="7.164108" lat="43.70613">
            <name>Ecole primaire Jean Monnet – Colline de l&#39;Etoile- 2295 avenue Marcel Pagnol (contre le grillage du lotissement des bastides au niveau de l&#39;école)</name>
        </rtept>
        <rtept lon="7.165853" lat="43.696625">
            <name>Entrée colline de l&#39;Etoile - CD 118 – route de Saint Laurent (contre le mur au départ de l&#39;Avenue Marcel Pagnol à côté de l&#39;abri bus)</name>
        </rtept>
        <rtept lon="7.177679" lat="43.745749">
            <name>La Zac : route de la Baronne</name>
        </rtept>
        <rtept lon="7.187654" lat="43.765789">
            <name>Ecole de la Bastide, 112 chemin de la Bastide</name>
        </rtept>
        <rtept lon="7.194548" lat="43.769193">
            <name>Gymnase, Rue de la Roya – Quartier du Planet</name>
        </rtept>
        <rtept lon="7.202103" lat="43.785138">
            <name>Salle des Fêtes – Place L Frescolini – 1350 route métropolitaire Les Plans</name>
        </rtept>
        <rtept lon="7.203167" lat="43.781759">
            <name>Foyer Rural – Place du Puy – (devant jeu de Boules)</name>
        </rtept>
        <rtept lon="7.197902" lat="43.777476">
            <name>Chemin de la Chapelle (niveau école ODV Guillonnet)</name>
        </rtept>
        <rtept lon="7.184916" lat="43.793301">
            <name>Ecole Louis Fiori – 200 route du Pont Charles Albert – RD 2209 (mur gauche sur parking – début niveau arceau)</name>
        </rtept>
        <rtept lon="7.186411" lat="43.791864">
            <name>rue Ferdinand Barbary (côté jardin villa Barbary) - le Village</name>
        </rtept>
        <rtept lon="7.17002" lat="43.808531">
            <name>Mairie, 1 place de l&#39;hôtel de ville panneau entrée hall Mairie.</name>
        </rtept>
        <rtept lon="7.092644" lat="43.84659">
            <name>Mairie- route du Mont Saint Michel – face à la mairie</name>
        </rtept>
        <rtept lon="7.0475245" lat="43.8435874">
            <name>Mairie de Conségudes place Louis Revel, à droite de l&#39;abri bus</name>
        </rtept>
        <rtept lon="7.00621" lat="43.872285">
            <name>Mairie, en face du 13 rue Maurice Fortuné Raybaud</name>
        </rtept>
        <rtept lon="7.005687" lat="43.873978">
            <name>Devant la mairie 1, rue du Pont de France</name>
        </rtept>
        <rtept lon="7.020284" lat="43.886567">
            <name>Place de l&#39;église , sur Mur coté église</name>
        </rtept>
        <rtept lon="7.092034" lat="43.863942">
            <name>Mairie 36 Route du Vieux Pierrefeu</name>
        </rtept>
        <rtept lon="7.162668" lat="43.849216">
            <name>Mairie-Annexe - quartier Pont-Charles-Albert, 331 route de Gilette, le long de la route départementale n° 17</name>
        </rtept>
        <rtept lon="7.163605" lat="43.849624">
            <name>Mairie - 1 place Docteur René Morani - 06830 GILETTE, à gauche de l&#39;entrée de la Mairie</name>
        </rtept>
        <rtept lon="7.182585" lat="43.860083">
            <name>Mairie de Bonson place Désiré Scoffier , à gauche de l&#39;entrée de la Poste</name>
        </rtept>
        <rtept lon="7.155958" lat="43.881311">
            <name>3, Place Saint Laurent</name>
        </rtept>
        <rtept lon="7.142598" lat="43.881521">
            <name>Place Sainte Anne sur le mur du jeu de boule</name>
        </rtept>
        <rtept lon="7.114222" lat="43.901691">
            <name>Mairie, le village</name>
        </rtept>
        <rtept lon="7.0142024" lat="43.9211914">
            <name>Mairie, place centrale</name>
        </rtept>
        <rtept lon="6.9804627" lat="43.9104289">
            <name>Place georges Meyffret, en face de la Mairie</name>
        </rtept>
        <rtept lon="6.947691" lat="43.927494">
            <name>Place Luigi Durand à gauche de la salle polyvalente</name>
        </rtept>
        <rtept lon="6.91723585129" lat="43.9738731384">
            <name>devant la mairie</name>
        </rtept>
        <rtept lon="6.908558" lat="43.988368">
            <name>Place du Village</name>
        </rtept>
        <rtept lon="6.87483501434" lat="43.9877929688">
            <name>Mairie, 1 place de la Mairie</name>
        </rtept>
        <rtept lon="6.827476" lat="44.000428">
            <name>Sur le mur de la mairie</name>
        </rtept>
        <rtept lon="6.895542" lat="43.955692">
            <name>Place Général de Gaulle (église)</name>
        </rtept>
        <rtept lon="6.8934052" lat="43.9557323">
            <name>Mairie rez-de-chaussée Hall et 1er étage salle des mariages rue Miss Pell (côté mairie)</name>
        </rtept>
        <rtept lon="6.920334" lat="43.953657">
            <name>Quartier des Blanqueries (entrée du quartier)</name>
        </rtept>
        <rtept lon="7.00611019135" lat="43.9477005005">
            <name>Devant la mairie</name>
        </rtept>
        <rtept lon="7.097161" lat="43.93667">
            <name>Place L&amp;V Robini devant la salle du poilu</name>
        </rtept>
        <rtept lon="7.030849" lat="43.978327">
            <name>Quartier &quot;AR VERGIE&quot; à l&#39;entrée du village</name>
        </rtept>
        <rtept lon="7.125529" lat="43.942237">
            <name>Place du Village</name>
        </rtept>
        <rtept lon="7.15116977692" lat="43.9463996887">
            <name>63, route de Massoins, face à la mairie</name>
        </rtept>
        <rtept lon="7.12682580948" lat="43.9821510315">
            <name>Mairie de BAIROLS &quot; La Placa &quot;</name>
        </rtept>
        <rtept lon="7.157745" lat="43.96009">
            <name>Sur la grande place de La Tour à gauche face à l&#39;église</name>
        </rtept>
        <rtept lon="7.1056753" lat="43.7266005">
            <name>Avenue Maréchal Foch - mur de l&#39;ONAC</name>
        </rtept>
    </rte>
</gpx>
