<?xml version="1.0" encoding="UTF-8" standalone="yes"?>
<gpx xmlns="http://www.topografix.com/GPX/1/1" version="1.1" creator="panneaux-election.fr">
    <rte>
        <rtept lon="5.838278" lat="45.151921">
            <name></name>
        </rtept>
        <rtept lon="5.96618" lat="45.378365">
            <name></name>
        </rtept>
        <rtept lon="5.949094" lat="45.375151">
            <name>PLACE  DE LA MAIRIE</name>
        </rtept>
        <rtept lon="5.9454658" lat="45.4067486">
            <name>MAIRIE</name>
        </rtept>
        <rtept lon="5.9629240036" lat="45.3987007141">
            <name>MAIRIE</name>
        </rtept>
        <rtept lon="5.977932" lat="45.404746">
            <name>PLACE  DE LA MAIRIE</name>
        </rtept>
        <rtept lon="5.989877" lat="45.462439">
            <name></name>
        </rtept>
        <rtept lon="5.989877" lat="45.462439">
            <name></name>
        </rtept>
        <rtept lon="5.989877" lat="45.462439">
            <name></name>
        </rtept>
        <rtept lon="5.989877" lat="45.462439">
            <name></name>
        </rtept>
        <rtept lon="5.99185991287" lat="45.4626998901">
            <name>PLACE  DE LA MAIRIE</name>
        </rtept>
        <rtept lon="6.000149" lat="45.435296">
            <name>PLACE  DE LA GACHE</name>
        </rtept>
        <rtept lon="6.0119932" lat="45.4332687">
            <name>PLACE  SAINT  BLAISE</name>
        </rtept>
        <rtept lon="6.013426" lat="45.43112">
            <name>AVENUE  DE CHARTREUSE (CIMETIÈRE)</name>
        </rtept>
        <rtept lon="6.0255227" lat="45.4342555">
            <name>PLACE  DE ROVASENDA</name>
        </rtept>
        <rtept lon="6.022087" lat="45.438224">
            <name>AVENUE  DU GRANIER (CIMETIÈRE)</name>
        </rtept>
        <rtept lon="6.021945" lat="45.435297">
            <name>RUE DU GRÉSIVAUDAN (MAIRIE)</name>
        </rtept>
        <rtept lon="6.021057" lat="45.435178">
            <name>RUE DES METTANIES (TOURS  BAYARD)</name>
        </rtept>
        <rtept lon="6.0239228" lat="45.4305185">
            <name>PETIT GYMNASE CÉSAR  TERRIER - RUE DES ECOLES</name>
        </rtept>
        <rtept lon="6.037931" lat="45.426423">
            <name>SALLE  MARIE-LOUISE</name>
        </rtept>
        <rtept lon="6.0886001" lat="45.4304645">
            <name>FACE À LA MAIRIE</name>
        </rtept>
        <rtept lon="6.09565782547" lat="45.4230117798">
            <name>MAIRIE</name>
        </rtept>
        <rtept lon="6.095226" lat="45.422633">
            <name>BELLECOMBE</name>
        </rtept>
        <rtept lon="6.095226" lat="45.422633">
            <name>SALLE  POLYVALENTE</name>
        </rtept>
        <rtept lon="6.099229" lat="45.356739">
            <name></name>
        </rtept>
        <rtept lon="6.073141" lat="45.393504">
            <name></name>
        </rtept>
        <rtept lon="6.047791" lat="45.374371">
            <name></name>
        </rtept>
        <rtept lon="6.0466317" lat="45.3741642">
            <name>PLACE  DU VILLAGE</name>
        </rtept>
        <rtept lon="6.015436" lat="45.367137">
            <name></name>
        </rtept>
        <rtept lon="6.012568" lat="45.392534">
            <name>LE TROUILLET</name>
        </rtept>
        <rtept lon="6.0129413" lat="45.4137237">
            <name>VILLARD  NOIR</name>
        </rtept>
        <rtept lon="6.003729" lat="45.391765">
            <name>LE VILLARD</name>
        </rtept>
        <rtept lon="5.997688" lat="45.390659">
            <name>ROUTE  DU ROMPAY  (FACE ÉCOLE)</name>
        </rtept>
        <rtept lon="5.9929635" lat="45.3712033">
            <name>MAIRIE  RUE DE LA POSTE</name>
        </rtept>
        <rtept lon="5.9901607" lat="45.3688043">
            <name>ZAC DES VIGNES</name>
        </rtept>
        <rtept lon="5.978297" lat="45.342">
            <name></name>
        </rtept>
        <rtept lon="5.996483" lat="45.300064">
            <name></name>
        </rtept>
        <rtept lon="5.970312" lat="45.288147">
            <name></name>
        </rtept>
        <rtept lon="5.9652112" lat="45.2707726">
            <name>PARKING DE L&#39;ÉCOLE  DES ADRETS</name>
        </rtept>
        <rtept lon="5.932153" lat="45.26674">
            <name>BOIS CHALIMBAUD</name>
        </rtept>
        <rtept lon="5.9326479" lat="45.2527465">
            <name>PLACE  DE LA MAIRIE</name>
        </rtept>
        <rtept lon="5.9089333" lat="45.2585664">
            <name>PLACE  DU 24 AOÛT</name>
        </rtept>
        <rtept lon="5.904088" lat="45.257063">
            <name>RUE DÉSIRET  GRANET</name>
        </rtept>
        <rtept lon="5.901445" lat="45.255353">
            <name>AVENUE  HENRI BARBUSSE</name>
        </rtept>
        <rtept lon="5.895921" lat="45.251147">
            <name>CHEMIN  DU BERLIOZ</name>
        </rtept>
        <rtept lon="5.890451" lat="45.241213">
            <name>PLACE  DE L&#39;ÉGLISE</name>
        </rtept>
        <rtept lon="5.887357" lat="45.239424">
            <name>RUE AMBROISE CROIZAT</name>
        </rtept>
        <rtept lon="5.88850021362" lat="45.2386016846">
            <name>RUE DES MAGNOLIAS</name>
        </rtept>
        <rtept lon="5.887298" lat="45.238062">
            <name>DEVANT  LA SALLE  GÉRARD PHILIP</name>
        </rtept>
        <rtept lon="5.882164" lat="45.234419">
            <name>PLACE  DE LA RÉPUBLIQUE</name>
        </rtept>
        <rtept lon="5.883848" lat="45.232725">
            <name>PLACE  DE VERDUN</name>
        </rtept>
        <rtept lon="5.8747469" lat="45.2250243">
            <name>SALLE  POLYVALENTE</name>
        </rtept>
        <rtept lon="5.865392" lat="45.217941">
            <name>RUE JEAN JAURES</name>
        </rtept>
        <rtept lon="5.86077976227" lat="45.2182998657">
            <name>MAIRIE</name>
        </rtept>
        <rtept lon="5.86077976227" lat="45.2182998657">
            <name>MAISON  DES SENIORS</name>
        </rtept>
        <rtept lon="5.855902" lat="45.214646">
            <name>RUE SAINT  EXUPERY</name>
        </rtept>
        <rtept lon="5.8462" lat="45.205723">
            <name>ROUTE  DE SAVOIE</name>
        </rtept>
        <rtept lon="5.840456" lat="45.205726">
            <name>RUE DE MONTROUX (FACE AU QUARTIER DES BAYARDIÈRES)</name>
        </rtept>
        <rtept lon="5.723374" lat="45.219832">
            <name>LACHAL  - ECOLE-  CHEMIN  ANDRE  TISSERAND</name>
        </rtept>
        <rtept lon="5.7227489" lat="45.219935">
            <name>ECOLE  DU CENTRE  - PLACE  DE LA MAIRIE</name>
        </rtept>
        <rtept lon="5.715966" lat="45.202716">
            <name>ESPACE  HUBERT  DUBEDOUT - RUE DU PETIT LAC</name>
        </rtept>
        <rtept lon="5.7055764" lat="45.2089785">
            <name>HOTEL  DE VILLE - AVENUE  GENERAL LECLERC</name>
        </rtept>
        <rtept lon="5.70508003235" lat="45.2089996338">
            <name>PARKING DE LA MAISON  DES MOAIS</name>
        </rtept>
        <rtept lon="5.696951" lat="45.215461">
            <name>RUE DU 26 MAI 1944</name>
        </rtept>
        <rtept lon="5.683414" lat="45.222515">
            <name>17 RUE LIEUTENANT FIANCEY</name>
        </rtept>
        <rtept lon="5.689566" lat="45.224611">
            <name>ROUTE  DE GRENOBLE FACE À LA RUE DU 19 MARS 1962</name>
        </rtept>
        <rtept lon="5.688498" lat="45.231185">
            <name>30 AVENUE  DU COLLÈGE</name>
        </rtept>
        <rtept lon="5.675099" lat="45.237198">
            <name>34 RUE DE SAINT  ROBERT</name>
        </rtept>
        <rtept lon="5.671984" lat="45.237265">
            <name>RUE DES BONNAIS</name>
        </rtept>
        <rtept lon="5.672906" lat="45.239471">
            <name>36, AV. GÉNÉRAL DE GAULLE  (EN BORDURE D&#39;ALLÉE  MAIRIE)</name>
        </rtept>
        <rtept lon="5.674444" lat="45.270983">
            <name>LIEU-DIT  FOCHAIRE</name>
        </rtept>
        <rtept lon="5.664953" lat="45.255299">
            <name></name>
        </rtept>
        <rtept lon="5.678" lat="45.243762">
            <name>AVENUE  DE KARBEN</name>
        </rtept>
        <rtept lon="5.683799" lat="45.240201">
            <name>12, AV. MÉDECIN GAL VIALLET  (GROUPE SCOLAIRE LA MONTA)</name>
        </rtept>
        <rtept lon="5.6993703" lat="45.2630078">
            <name>GRILLE  DE LA COUR DE L&#39;ÉCOLE</name>
        </rtept>
        <rtept lon="5.718377" lat="45.25221">
            <name></name>
        </rtept>
        <rtept lon="5.759156" lat="45.273645">
            <name>PLACE  DE L’EGLISE</name>
        </rtept>
        <rtept lon="5.814737" lat="45.341728">
            <name></name>
        </rtept>
        <rtept lon="5.852972" lat="45.414645">
            <name>A CÔTÉ DE LA SALLE  COMMUNALE DE L&#39;ANCIEN PRESBYTÈRE (HAMEAU DE ST PHILIBERT)</name>
        </rtept>
        <rtept lon="5.775238" lat="45.438973">
            <name>PLACE  DE LA PEILLE</name>
        </rtept>
        <rtept lon="5.7520298" lat="45.4334714">
            <name>A CÔTÉ DE LA BIBLIOTHÈQUE MUNICIPALE</name>
        </rtept>
        <rtept lon="5.696267" lat="45.375277">
            <name></name>
        </rtept>
        <rtept lon="5.7343377" lat="45.3859591">
            <name>PLACE  DE L&#39;ÉGLISE CONTRE  LE MUR CÔTÉ CHAPELLE</name>
        </rtept>
        <rtept lon="5.733915" lat="45.386979">
            <name>VERS L&#39;ECOLE  MATERNELLE DU REVOL  &quot;DEVANT LA HAIE DU LOTISSEMENT PLURALIS&quot;</name>
        </rtept>
        <rtept lon="5.733915" lat="45.386979">
            <name>87 ROUTE  DE VILLETTE, IMMEUBLE LA DETRAZ  SUR PROPRIÉTÉ PLURALIS</name>
        </rtept>
        <rtept lon="5.733915" lat="45.386979">
            <name>VILLETTE CONTRE  LE MUR DE L&#39;EGLISE CÔTÉ CARREFOUR CD 28</name>
        </rtept>
        <rtept lon="5.733915" lat="45.386979">
            <name>IMPASSE DU COLLÈGE AV CDT L&#39;HERMINIER CONTRE  LE MUR DE L&#39;ENTREPÔTS ETS BOTTA</name>
        </rtept>
        <rtept lon="5.707833" lat="45.429057">
            <name></name>
        </rtept>
        <rtept lon="5.664147" lat="45.444715">
            <name>MERLAS</name>
        </rtept>
        <rtept lon="5.709187" lat="45.483084">
            <name></name>
        </rtept>
        <rtept lon="5.688413" lat="45.477277">
            <name></name>
        </rtept>
        <rtept lon="5.640276" lat="45.458959">
            <name>ZA LA THUERY</name>
        </rtept>
        <rtept lon="5.6396654" lat="45.4525421">
            <name>PARKING DU CIMETIÈRE</name>
        </rtept>
        <rtept lon="5.635054" lat="45.45627">
            <name>PLACE  ANDRÉ  BONIN</name>
        </rtept>
        <rtept lon="5.631998" lat="45.456314">
            <name>PLACE  DE PLAMPALAIS</name>
        </rtept>
        <rtept lon="5.6471979" lat="45.4878101">
            <name>DEVANT  L&#39;ÉCOLE  DE VELANNE</name>
        </rtept>
        <rtept lon="5.5968261" lat="45.5089365">
            <name>BORDURE RD 1028</name>
        </rtept>
        <rtept lon="5.581767" lat="45.524829">
            <name></name>
        </rtept>
        <rtept lon="5.55390310287" lat="45.4758033752">
            <name>PARKING DE LA MAIRIE</name>
        </rtept>
        <rtept lon="5.590246" lat="45.486794">
            <name></name>
        </rtept>
        <rtept lon="5.608592" lat="45.46835">
            <name></name>
        </rtept>
        <rtept lon="5.595692" lat="45.438918">
            <name></name>
        </rtept>
        <rtept lon="5.8164079" lat="45.1918576">
            <name>LE BOURG-MAIRIE</name>
        </rtept>
        <rtept lon="5.829899" lat="45.198842">
            <name>RUE DES ALPES  (COTÉ  COLLÈGE LA MOULINIÈRE)</name>
        </rtept>
        <rtept lon="5.829096" lat="45.202957">
            <name>RUE CASIMIR  JULHIET  &quot;LES CHENEVIÈRES&quot;</name>
        </rtept>
        <rtept lon="5.83595" lat="45.200389">
            <name>RUE EMILE BLANC  (À CÔTÉ DES H.L.M)</name>
        </rtept>
        <rtept lon="5.8386104" lat="45.202828">
            <name>PLACE  COMPAGNIE STÉPHANE (A COTÉ DE LA SALLE  DES FÊTES  L&#39;ESCAPADE)</name>
        </rtept>
        <rtept lon="5.86801" lat="45.185399">
            <name></name>
        </rtept>
        <rtept lon="5.838278" lat="45.151921">
            <name></name>
        </rtept>
        <rtept lon="5.87462997437" lat="45.1114006042">
            <name>MAIRIE</name>
        </rtept>
        <rtept lon="5.875753" lat="45.113119">
            <name>OFFICE  DE TOURISME CHAMROUSSE 1650</name>
        </rtept>
        <rtept lon="5.880855" lat="45.212099">
            <name></name>
        </rtept>
        <rtept lon="5.896832" lat="45.225201">
            <name></name>
        </rtept>
        <rtept lon="5.92648792267" lat="45.2242202759">
            <name>MAIRIE  LA PALLUD</name>
        </rtept>
        <rtept lon="5.920364" lat="45.236301">
            <name></name>
        </rtept>
        <rtept lon="5.910487" lat="45.259196">
            <name>ECOLE  GUYNEMER</name>
        </rtept>
        <rtept lon="5.9166431" lat="45.2714117">
            <name>INTERSECTION D528/D286</name>
        </rtept>
        <rtept lon="5.924859" lat="45.272994">
            <name>RUE GAMBETTA</name>
        </rtept>
        <rtept lon="5.924705" lat="45.272845">
            <name>PLACE  PAUL HÉROULT</name>
        </rtept>
        <rtept lon="5.9404768" lat="45.2792727">
            <name>MAIRIE  - CHAMP  LE HAUT</name>
        </rtept>
        <rtept lon="5.947605" lat="45.293254">
            <name></name>
        </rtept>
        <rtept lon="5.959939" lat="45.309147">
            <name></name>
        </rtept>
        <rtept lon="5.930044" lat="45.32345">
            <name></name>
        </rtept>
        <rtept lon="5.911245" lat="45.30592">
            <name></name>
        </rtept>
        <rtept lon="5.8986993" lat="45.2891285">
            <name>LOTISSEMENT &quot;LE COTEAU&quot; À MONTFORT</name>
        </rtept>
        <rtept lon="5.8835271" lat="45.2848486">
            <name>PLACE  DE LA MAIRIE  (POUR LE BUREAU  5)</name>
        </rtept>
        <rtept lon="5.8814733" lat="45.2842386">
            <name>PROJO  - (POUR LES BUREAUX 1 ET 2)</name>
        </rtept>
        <rtept lon="5.8832688" lat="45.2803747">
            <name>DEVANT  LA SALLE  BORIS  VIAN (POUR LES BUREAUX 3 ET 4)</name>
        </rtept>
        <rtept lon="5.8730845" lat="45.2772279">
            <name>ROND POINT  DE LA CROIX DES AYES</name>
        </rtept>
        <rtept lon="5.8606" lat="45.2928">
            <name>PARVIS  DE LA MAIRIE</name>
        </rtept>
        <rtept lon="5.886747" lat="45.309527">
            <name>100 ROUTE  DES TROIS VILLAGES</name>
        </rtept>
        <rtept lon="5.902216" lat="45.328681">
            <name></name>
        </rtept>
        <rtept lon="5.94716" lat="45.357241">
            <name></name>
        </rtept>
        <rtept lon="5.838278" lat="45.151921">
            <name></name>
        </rtept>
    </rte>
</gpx>
