<?xml version="1.0" encoding="UTF-8" standalone="yes"?>
<gpx xmlns="http://www.topografix.com/GPX/1/1" version="1.1" creator="panneaux-election.fr">
    <rte>
        <rtept lon="5.852142" lat="45.248876">
            <name>RN1090</name>
        </rtept>
        <rtept lon="5.777303" lat="45.207859">
            <name>DEVANT  L&#39;ÉCOLE  MATERNELLE, 7 BIS AVENUE  DU VERCORS</name>
        </rtept>
        <rtept lon="5.778695" lat="45.208381">
            <name>SUR LA PLACE  DU MARCHÉ  DES BUCLOS, AVANT  L&#39;ALLÉE  DU BRET</name>
        </rtept>
        <rtept lon="5.789803" lat="45.212849">
            <name>VERS LA MAISON  DE LA CLAIRIÈRE, SUR LE CHEMIN  DU ROUTOIR</name>
        </rtept>
        <rtept lon="5.7964755" lat="45.2145746">
            <name>DEVANT  LE GROUPE  SCOLAIRE MAUPERTUIS CHEMIN  DE LA DHUY</name>
        </rtept>
        <rtept lon="5.8016111" lat="45.225593">
            <name>MAIRIE  (ALLÉE  DU PARC DE MIRIBEL)</name>
        </rtept>
        <rtept lon="5.802048" lat="45.226903">
            <name>RUE GENERAL DE GAULLE  (RUE GÉNÉRAL DE GAULLE,  ENTRÉEE MONTBONNOT</name>
        </rtept>
        <rtept lon="5.8030006" lat="45.2280007">
            <name>ECOLE  DU BOURG  (RUE GÉNÉRAL DE GAULLE)</name>
        </rtept>
        <rtept lon="5.802558" lat="45.226705">
            <name>PLACE  ROBERT  SCHUMAN (AVENUE DE L&#39;EUROPE)</name>
        </rtept>
        <rtept lon="5.814474" lat="45.229796">
            <name>ECOLE  DU TARTAIX (CHEMIN  DE TARTAIX)</name>
        </rtept>
        <rtept lon="5.818006" lat="45.228705">
            <name>ROUTE  DES SEMAISES (SORTIE  VOIE EN S)</name>
        </rtept>
        <rtept lon="5.8083816" lat="45.2230976">
            <name>ECOLE  DES CHAVANNES (CHEMIN  DE LA CROIX VERTE)</name>
        </rtept>
        <rtept lon="5.810406" lat="45.219631">
            <name>ANGLE  AVENUE  DE L&#39;EUROPE - AVENUE  JEAN KUNTZMANN</name>
        </rtept>
        <rtept lon="5.818885" lat="45.225081">
            <name>MAISON  DU PRE DE L&#39;EAU (130 ALLÉE  DU PRÉ DE L&#39;EAU)</name>
        </rtept>
        <rtept lon="5.839907" lat="45.24108">
            <name>ANGLE  CHEMIN  PRÉ-DIOT ET CHEMIN   DU FANGEAT</name>
        </rtept>
        <rtept lon="5.8499" lat="45.239543">
            <name>ROND POINT  DE LA BATIE ALLÉE  DE LA BATIE</name>
        </rtept>
        <rtept lon="5.852142" lat="45.248876">
            <name>RN1090</name>
        </rtept>
        <rtept lon="5.850558" lat="45.251189">
            <name>CHEMIN  DE LA MAIRIE  (ABORDS SALLE  POLYVALENTE)</name>
        </rtept>
        <rtept lon="5.8655164" lat="45.2686923">
            <name>SALLE  DES FETES  – MAIRIE</name>
        </rtept>
        <rtept lon="5.847016" lat="45.260984">
            <name>CHEMIN  DU PRÉ DE L&#39;ACHARD</name>
        </rtept>
        <rtept lon="5.8357669" lat="45.2520606">
            <name>CHEMIN  DE POULATIÈRE - PARKING ÉCOLE  PRIMAIRE</name>
        </rtept>
        <rtept lon="5.827466" lat="45.2490005">
            <name>CHEMIN  DU ROZAT  À CÔTÉ DE LA SALLE  DES FÊTES</name>
        </rtept>
        <rtept lon="5.826573" lat="45.247724">
            <name>RD1090  EN FACE DU PARKING DU COLLÈGE</name>
        </rtept>
        <rtept lon="5.826573" lat="45.247724">
            <name>EN BAS DU CHEMIN  DES SEMAISES VIRAGE  ANGLE  DROIT,  NIVEAU  PASSAGE PIÉTON  RD11B</name>
        </rtept>
        <rtept lon="5.826573" lat="45.247724">
            <name>ANGLE  CHEMIN  DE LABIS ET CHEMIN  DU MANIVAL</name>
        </rtept>
        <rtept lon="5.824347" lat="45.254435">
            <name>CHEMIN  DU CRÊT DE CHAUME  EN FACE DU CHEMIN  DU MILLET</name>
        </rtept>
        <rtept lon="5.8189925" lat="45.2491581">
            <name>RD1090  - ANGLE  CHEMIN  DE L&#39;OURSIÈRE</name>
        </rtept>
        <rtept lon="5.820731" lat="45.247968">
            <name>AU CROISEMENT CHEMIN  DE MOUCHEROTTE ET CHEMIN  DU SERVAGE</name>
        </rtept>
        <rtept lon="5.822492" lat="45.241709">
            <name>PLACE  DE L&#39;AGORA</name>
        </rtept>
        <rtept lon="5.817115" lat="45.236582">
            <name>DOMAINE DU ST EYNARD  (ALLÉE  DU JAYET)</name>
        </rtept>
        <rtept lon="5.813595" lat="45.239602">
            <name>CHEMIN  DES EVEQUAUX: AU NIVEAU  DU N°302</name>
        </rtept>
        <rtept lon="5.804764" lat="45.238267">
            <name>ROUTE  DE MEYLAN: AU NIVEAU  DU N°1571</name>
        </rtept>
        <rtept lon="5.803213" lat="45.239985">
            <name>MAIRIE  DE BIVIERS: 369 CHEMIN  DE L&#39;EGLISE</name>
        </rtept>
        <rtept lon="5.8033667" lat="45.2398523">
            <name>PARKING DE LA SALLE  DES FETES</name>
        </rtept>
        <rtept lon="5.777564" lat="45.262468">
            <name></name>
        </rtept>
        <rtept lon="5.7453061" lat="45.2158039">
            <name>CHEMIN  DE MAUBEC (PRAIRIE DE MAUBEC)</name>
        </rtept>
        <rtept lon="5.749504" lat="45.210905">
            <name></name>
        </rtept>
        <rtept lon="5.734982" lat="45.203818">
            <name>4 CHEMIN  SAINT  JEAN / BUREAU  1 ET 2</name>
        </rtept>
        <rtept lon="5.7340657" lat="45.2019017">
            <name>PARKING CHEVILLON - 51 GRANDE  RUE</name>
        </rtept>
        <rtept lon="5.73575" lat="45.202128">
            <name>QUAI CHARPENAY (FACE AU PARKING)</name>
        </rtept>
        <rtept lon="5.746029" lat="45.203798">
            <name>AVENUE  DES MAQUIS  DU GRÉSIVAUDAN (EN FACE DU CRSSA)</name>
        </rtept>
        <rtept lon="5.750137" lat="45.204739">
            <name>5 RUE DOYEN  GOSSE  (MUR VILLA DES ALPES)</name>
        </rtept>
        <rtept lon="5.750857" lat="45.203649">
            <name>13 RUE DOYEN  GOSSE  (STADE  MUNICIPAL LOUIS GAILLARD)</name>
        </rtept>
        <rtept lon="5.754272" lat="45.203888">
            <name>14 RUE JEAN DE LA FONTAINE / BUREAU  3 ET 4</name>
        </rtept>
        <rtept lon="5.7631" lat="45.20886">
            <name>DEVANT  LE GROUPE  SCOLAIRE MI-PLAINE, 12 RUE DES AIGUINARDS</name>
        </rtept>
        <rtept lon="5.763817" lat="45.206601">
            <name>VERS LE FOYER  CLUB DU 3ÈME AGE, 24 RUE DES AGIUINARDS</name>
        </rtept>
        <rtept lon="5.7793445" lat="45.2180692">
            <name>PARKING DE LA BIBLIOTHÈQUE HAUT-MEYLAN AVENUE  DU CHARTREUSE</name>
        </rtept>
        <rtept lon="5.781455" lat="45.209726">
            <name>DEVANT  LA MAISON  DE LA MUSIQUE, 4 AVENUE  DU GRANIER</name>
        </rtept>
        <rtept lon="5.777597" lat="45.209403">
            <name>DEVANT  L&#39;HÔTEL  DE VILLE,  4 AVENUE  DU VERCORS</name>
        </rtept>
        <rtept lon="5.852142" lat="45.248876">
            <name>RN1090</name>
        </rtept>
    </rte>
</gpx>
