<?xml version="1.0" encoding="UTF-8" standalone="yes"?>
<gpx xmlns="http://www.topografix.com/GPX/1/1" version="1.1" creator="panneaux-election.fr">
    <rte>
        <rtept lon="4.59120988846" lat="45.7074012756">
            <name>parking de la mairie</name>
        </rtept>
        <rtept lon="4.50025" lat="45.61409">
            <name>le bourg</name>
        </rtept>
        <rtept lon="4.461362" lat="45.632964">
            <name>salle des sports boulevard du Stade</name>
        </rtept>
        <rtept lon="4.45614" lat="45.632874">
            <name>Place de Verdun</name>
        </rtept>
        <rtept lon="4.444247" lat="45.649775">
            <name>le bourg</name>
        </rtept>
        <rtept lon="4.420317" lat="45.656479">
            <name>Le bourg</name>
        </rtept>
        <rtept lon="4.390242" lat="45.67442">
            <name>Place Mangini</name>
        </rtept>
        <rtept lon="4.395335" lat="45.715962">
            <name>Rue de l&#39;Eglise</name>
        </rtept>
        <rtept lon="4.368368" lat="45.772647">
            <name>Place de la Bascule</name>
        </rtept>
        <rtept lon="4.405991" lat="45.811206">
            <name>Place des Forges</name>
        </rtept>
        <rtept lon="4.424539" lat="45.791636">
            <name>Place de l&#39;Eglise</name>
        </rtept>
        <rtept lon="4.423211" lat="45.752288">
            <name>Place des Tilleuls</name>
        </rtept>
        <rtept lon="4.431769" lat="45.718842">
            <name>Place de l&#39;étang</name>
        </rtept>
        <rtept lon="4.453325" lat="45.705665">
            <name>le bourg</name>
        </rtept>
        <rtept lon="4.471817" lat="45.708758">
            <name>48, Grande Rue</name>
        </rtept>
        <rtept lon="4.492049" lat="45.70965">
            <name>Place de la Mairie au bourg</name>
        </rtept>
        <rtept lon="4.524448" lat="45.708072">
            <name>le bourg</name>
        </rtept>
        <rtept lon="4.464402" lat="45.73768">
            <name>Place de l&#39;Eglise</name>
        </rtept>
        <rtept lon="4.49983978271" lat="45.7611999512">
            <name>Passage sous la Mairie</name>
        </rtept>
        <rtept lon="4.49983978271" lat="45.7611999512">
            <name>Mairie</name>
        </rtept>
        <rtept lon="4.523834" lat="45.747073">
            <name>parking de la bascule au niveau 18, rue du Moulin</name>
        </rtept>
        <rtept lon="4.571441" lat="45.741403">
            <name>Route du Vélair</name>
        </rtept>
        <rtept lon="4.658109" lat="45.734993">
            <name>1 rue du Dronaud</name>
        </rtept>
        <rtept lon="4.63151" lat="45.713929">
            <name>le bourg (Saint Laurent de Vaux)</name>
        </rtept>
        <rtept lon="4.671033" lat="45.734255">
            <name>hameau de la maison blanche</name>
        </rtept>
        <rtept lon="4.681958" lat="45.74687">
            <name>Les Ferrières</name>
        </rtept>
        <rtept lon="4.660428" lat="45.763993">
            <name>113 Rue des Ecoles (devant la mairie)</name>
        </rtept>
        <rtept lon="4.690789" lat="45.77609">
            <name>rue de Verdun</name>
        </rtept>
        <rtept lon="4.7057" lat="45.781198">
            <name>avenue Marcel Mérieux</name>
        </rtept>
        <rtept lon="4.7088784" lat="45.7831206">
            <name>rue F. Dolto - allée des Ecoles</name>
        </rtept>
        <rtept lon="4.723165" lat="45.782146">
            <name>Rond Point de l&#39;étoile</name>
        </rtept>
        <rtept lon="4.734677" lat="45.784885">
            <name>Place Marsonnat</name>
        </rtept>
        <rtept lon="4.7396949" lat="45.7805168">
            <name>Parc Sainte Luce - avenue Lamartine</name>
        </rtept>
        <rtept lon="4.7417994" lat="45.7784811">
            <name>Chemin de la Bressonnière (en haut) angle chemin Vert</name>
        </rtept>
        <rtept lon="4.7446295" lat="45.7788184">
            <name>Place Bad-Abbach</name>
        </rtept>
        <rtept lon="4.751388" lat="45.777656">
            <name>100, route de Paris</name>
        </rtept>
        <rtept lon="4.731357" lat="45.761554">
            <name>rue Georges Kayser - angle rue des Usclards</name>
        </rtept>
        <rtept lon="4.7380057" lat="45.7583081">
            <name>rue Marius Poncet – angle rue de la Garenne</name>
        </rtept>
        <rtept lon="4.724934" lat="45.760295">
            <name>rue de Bel Air – angle allée de Fourvière</name>
        </rtept>
        <rtept lon="4.7262802124" lat="45.7560997009">
            <name>Place de la Mairie</name>
        </rtept>
        <rtept lon="4.723582" lat="45.757557">
            <name>19 avenue de la Libération</name>
        </rtept>
        <rtept lon="4.715525" lat="45.757811">
            <name>Les Granges</name>
        </rtept>
        <rtept lon="4.733542" lat="45.746816">
            <name>ancienne route de Brindas</name>
        </rtept>
        <rtept lon="4.726248" lat="45.745167">
            <name>2 Rue des Terres Plates</name>
        </rtept>
        <rtept lon="4.722284" lat="45.744853">
            <name>rue Jean- Claude MARTIN contre l’Espace Rébuffat</name>
        </rtept>
        <rtept lon="4.722284" lat="45.744853">
            <name>Au centre de la place Andrée Marie Perrin-Le long de la haie du nouvel espace vert</name>
        </rtept>
        <rtept lon="4.723019" lat="45.743463">
            <name>Place Charles de Gaulle (devant la Mairie)</name>
        </rtept>
        <rtept lon="4.72273" lat="45.744602">
            <name>avenue Bergeron devant salle des fêtes</name>
        </rtept>
        <rtept lon="4.717329" lat="45.743754">
            <name>rue de Verdun</name>
        </rtept>
        <rtept lon="4.708091" lat="45.747949">
            <name>le Tupinier</name>
        </rtept>
        <rtept lon="4.689161" lat="45.747289">
            <name>Place Jasserand</name>
        </rtept>
        <rtept lon="4.69378995895" lat="45.748500824">
            <name>Mairie</name>
        </rtept>
        <rtept lon="4.697303" lat="45.742611">
            <name>Les 4 chemins</name>
        </rtept>
        <rtept lon="4.696624" lat="45.722651">
            <name>parking de la salle des Fêtes Montée de la Bernade</name>
        </rtept>
        <rtept lon="4.693798" lat="45.719642">
            <name>Place de la Paix</name>
        </rtept>
        <rtept lon="4.7352629" lat="45.7097368">
            <name>Salle Omnisport – route du Stade</name>
        </rtept>
        <rtept lon="4.740032" lat="45.712715">
            <name>7, avenue Devienne - Le Parc</name>
        </rtept>
        <rtept lon="4.7422403" lat="45.7102253">
            <name>Mairie – avenue Maréchal Joffre</name>
        </rtept>
        <rtept lon="4.745882" lat="45.713318">
            <name>Parking Bastia Rue des Viollières</name>
        </rtept>
        <rtept lon="4.757628" lat="45.712453">
            <name>Cordelière 4 rue Chanvillard</name>
        </rtept>
        <rtept lon="4.760264" lat="45.7168">
            <name>boulevard des Vergers - angle rue des Cerisiers</name>
        </rtept>
        <rtept lon="4.777251" lat="45.7169221">
            <name>Chapelle de Beaunant vers les Ecoles</name>
        </rtept>
        <rtept lon="4.783721" lat="45.697114">
            <name>72, rue des Martyrs - devant le centre aéré</name>
        </rtept>
        <rtept lon="4.7993387" lat="45.7036468">
            <name>1 avenue Clémenceau Hôpital Ste Eugénie</name>
        </rtept>
        <rtept lon="4.793842" lat="45.696415">
            <name>130 avenue Clémenceau devant la maison des Champs</name>
        </rtept>
        <rtept lon="4.792712" lat="45.695117">
            <name>71 rue de Collonges Maison Pointue Champlong</name>
        </rtept>
        <rtept lon="4.792712" lat="45.695117">
            <name>43 route d&#39;Irigny contre le C.E.S Jean Giono</name>
        </rtept>
        <rtept lon="4.792712" lat="45.695117">
            <name>45 avenue Clémenceau devant grilles de la maison chapuis</name>
        </rtept>
        <rtept lon="4.792712" lat="45.695117">
            <name>Avenue Maréchal Joffre devant les grilles du parc de Beauregard</name>
        </rtept>
        <rtept lon="4.792712" lat="45.695117">
            <name>81 avenue Charles de Gaulle devant le C.E.S Paul D&#39;Aubarede</name>
        </rtept>
        <rtept lon="4.792739" lat="45.695127">
            <name>Pace Jaboulay (contre le mur)</name>
        </rtept>
        <rtept lon="4.792712" lat="45.695117">
            <name>9 rue Francisque Darcieux devant les grilles du Montet</name>
        </rtept>
        <rtept lon="4.796736" lat="45.693265">
            <name>GS Mouton 23, rue des Collonges</name>
        </rtept>
        <rtept lon="4.7912603" lat="45.6906071">
            <name>20 route de Vourles devant l&#39;hôpital Henri Gabrielle</name>
        </rtept>
        <rtept lon="4.789106" lat="45.681162">
            <name>Basses Barolles Avenue Charles de Gaulle - face à Rhône-poulenc</name>
        </rtept>
        <rtept lon="4.750133" lat="45.653052">
            <name>place du Souvenir (les Septs Chemins)</name>
        </rtept>
        <rtept lon="4.774859" lat="45.660471">
            <name>Mairie - 26, rue Bertrange Imeldange</name>
        </rtept>
        <rtept lon="4.778633" lat="45.661758">
            <name>Maison Forte - 2, rue des Vallières</name>
        </rtept>
        <rtept lon="4.7587562" lat="45.67514">
            <name>Hôtel de Ville - rue de Janicu</name>
        </rtept>
        <rtept lon="4.757759" lat="45.675232">
            <name>Les Pérouses (central PTT) - Côté Bri’sports : rue Paul Bovier Lapierre</name>
        </rtept>
        <rtept lon="4.753459" lat="45.673217">
            <name>Groupe scolaire Jacques CARTIER – rue Mère Elise Rivet</name>
        </rtept>
        <rtept lon="4.753459" lat="45.673217">
            <name>Carrefour rue Général de Gaulle / route de Soucieu</name>
        </rtept>
        <rtept lon="4.753459" lat="45.673217">
            <name>Groupe scolaire Claudius FOURNION - avenue Ferdinand Gaillard</name>
        </rtept>
        <rtept lon="4.753459" lat="45.673217">
            <name>Groupe scolaire Jean Moulin - boulevard de Schweighouse</name>
        </rtept>
        <rtept lon="4.753773" lat="45.672314">
            <name>Place du 8 Mai 1945</name>
        </rtept>
        <rtept lon="4.754885" lat="45.673878">
            <name>Place Gamboni (bureau de Poste)</name>
        </rtept>
        <rtept lon="4.752712" lat="45.675148">
            <name>Bâtiment communal – 18, rue Simondon</name>
        </rtept>
        <rtept lon="4.748128" lat="45.677369">
            <name>Montée de la Côte</name>
        </rtept>
        <rtept lon="4.7511803" lat="45.6786815">
            <name>Gymnase municipal - boulevard des Sports</name>
        </rtept>
        <rtept lon="4.761562" lat="45.688621">
            <name>Les collonges (carrefour chemin de la Lande /rue du Bonnet)</name>
        </rtept>
        <rtept lon="4.748563" lat="45.702749">
            <name>MJC - 59, rue Etienne Gros</name>
        </rtept>
        <rtept lon="4.748512" lat="45.707155">
            <name>salle des fêtes - 9, boulevard Pierre Philippe REYDELLET</name>
        </rtept>
        <rtept lon="4.741273" lat="45.70346">
            <name>Crèche municipale - 1, rue Josserand</name>
        </rtept>
        <rtept lon="4.6763214" lat="45.6982685">
            <name>place de la chaussonnière</name>
        </rtept>
        <rtept lon="4.641041" lat="45.682493">
            <name>2 place Dugas</name>
        </rtept>
        <rtept lon="4.59120988846" lat="45.7074012756">
            <name>parking de la mairie</name>
        </rtept>
        <rtept lon="4.558851" lat="45.660214">
            <name>Place de la Mairie</name>
        </rtept>
        <rtept lon="4.527079" lat="45.683942">
            <name>Parking de la Mairie</name>
        </rtept>
        <rtept lon="4.498568" lat="45.654381">
            <name>Mur de la salle de la Maison des Jeunes à droite de l&#39;entrée</name>
        </rtept>
        <rtept lon="4.47582006454" lat="45.6273002625">
            <name>Place de la Mairie</name>
        </rtept>
        <rtept lon="4.47582006454" lat="45.6273002625">
            <name>Mairie - Le Bourg</name>
        </rtept>
        <rtept lon="4.59120988846" lat="45.7074012756">
            <name>parking de la mairie</name>
        </rtept>
    </rte>
</gpx>
