<?xml version="1.0" encoding="UTF-8" standalone="yes"?>
<gpx xmlns="http://www.topografix.com/GPX/1/1" version="1.1" creator="panneaux-election.fr">
    <rte>
        <rtept lon="4.879012" lat="45.691918">
            <name>Groupe Scolaire Henri Wallon - 24 avenue Marcel Cachin</name>
        </rtept>
        <rtept lon="4.943137" lat="45.696225">
            <name>G,S Plaine de Saythe - rue Colette</name>
        </rtept>
        <rtept lon="4.9362357" lat="45.6946686">
            <name>Médiathèque - Place Charles Ottina</name>
        </rtept>
        <rtept lon="4.936012" lat="45.694715">
            <name>Hotel de ville - 14 place charles Ottina</name>
        </rtept>
        <rtept lon="4.9338088" lat="45.6951165">
            <name>G.S Joseph Brenier – 9 avenue Georges Pompidou</name>
        </rtept>
        <rtept lon="4.9334738" lat="45.7054528">
            <name>Gymnase Gérard Philipe - avenue Salvador Allendé</name>
        </rtept>
        <rtept lon="4.929013" lat="45.702759">
            <name>Maison de Quartier Revaison - 15 rue Michelet</name>
        </rtept>
        <rtept lon="4.926428" lat="45.7016">
            <name>G.S Revaison - 2 rue du 11 novembre 1918</name>
        </rtept>
        <rtept lon="4.893059" lat="45.720192">
            <name>Centre de Loisirs du Clos Verger - ancienne route d&#39;Heyrieux</name>
        </rtept>
        <rtept lon="4.886222" lat="45.717632">
            <name>Groupe Scolaire Parilly - 10 rue Jeanne Labourbe</name>
        </rtept>
        <rtept lon="4.886222" lat="45.717632">
            <name>Groupe Scolaire Parilly - 10 rue Jeanne Labourbe</name>
        </rtept>
        <rtept lon="4.885377" lat="45.711538">
            <name>Groupe Scolaire Jules Guesde - 55 rue Joannès Vallet</name>
        </rtept>
        <rtept lon="4.872202" lat="45.723932">
            <name>avenue Viviani - à la hauteur des n° 38 et 40</name>
        </rtept>
        <rtept lon="4.866232" lat="45.719423">
            <name>Groupe Scolaire Georges Lévy - 62, avenue du Docteur Georges Lévy</name>
        </rtept>
        <rtept lon="4.865475" lat="45.723621">
            <name>Groupe Scolaire Joliot Curie - 5 rue Roger Salengro</name>
        </rtept>
        <rtept lon="4.865475" lat="45.723621">
            <name>Groupe Scolaire Joliot Curie - 5 rue Roger Salengro</name>
        </rtept>
        <rtept lon="4.859007" lat="45.728145">
            <name>Groupe Scolaire Pauline Kergomard - 20 rue Pierre Brossolette</name>
        </rtept>
        <rtept lon="4.859007" lat="45.728145">
            <name>Groupe Scolaire Moulin à Vent - 20 rue Pierre Brossolette</name>
        </rtept>
        <rtept lon="4.859679" lat="45.726673">
            <name>Foyer Vaillant Couturier - 32 rue Pierre Brossolette</name>
        </rtept>
        <rtept lon="4.858342" lat="45.724287">
            <name>Groupe Scolaire Ernest Renan - 86 rue du Professeur Roux</name>
        </rtept>
        <rtept lon="4.853674" lat="45.711214">
            <name>LCR du bourrelier 12 rue du bourrelier</name>
        </rtept>
        <rtept lon="4.852288" lat="45.708565">
            <name>avenue Jean Jaurès esplanade de l&#39;Arsenal arrêt de bus 12 direction Lyon</name>
        </rtept>
        <rtept lon="4.857158" lat="45.709422">
            <name>Gymnase Simone de Beauvoir - 21 rue Louis Blanc</name>
        </rtept>
        <rtept lon="4.860241" lat="45.712287">
            <name>Ecole Salvador Allende 53 rue Mathieu Dussurgey</name>
        </rtept>
        <rtept lon="4.8639236" lat="45.7066293">
            <name>Hôtel de ville - rue Gambetta</name>
        </rtept>
        <rtept lon="4.858253" lat="45.706308">
            <name>Foyer Ambroise Croizat, 25 rue Etienne Dolet</name>
        </rtept>
        <rtept lon="4.85918" lat="45.705967">
            <name>Résidence du Petit Bois, 23 avenue Albert Thomas</name>
        </rtept>
        <rtept lon="4.86208" lat="45.705076">
            <name>centre social Louise Michel 5 avenue Antoine Gravallon</name>
        </rtept>
        <rtept lon="4.862543" lat="45.703528">
            <name>école Parmentier, rue Antoine Gravallon</name>
        </rtept>
        <rtept lon="4.87138" lat="45.703621">
            <name>Groupe Scolaire Gabriel Péri - 1 rue Prosper Alfaric</name>
        </rtept>
        <rtept lon="4.870936" lat="45.703508">
            <name>Résidence Henri Raynaud - 4 rue Prosper Alfaric</name>
        </rtept>
        <rtept lon="4.871166" lat="45.700533">
            <name>Groupe Scolaire Louis Pergaud - 1 rue Colette</name>
        </rtept>
        <rtept lon="4.875636" lat="45.698875">
            <name>Groupe Scolaire Léo Lagrange - 49 bis rue Léo Lagrange</name>
        </rtept>
        <rtept lon="4.882021" lat="45.704315">
            <name>Maison du Peuple - 8 boulevard Laurent Gerin (face à la Cafétéria)</name>
        </rtept>
        <rtept lon="4.883453" lat="45.702504">
            <name>Canton Nord : bureau n° 19 Groupe Scolaire Centre - 43 bis boulevard Laurent Gerin</name>
        </rtept>
        <rtept lon="4.8845271" lat="45.6965134">
            <name>Hôtel de Ville - 5 avenue Marcel Houël (parking de l&#39;Hôtel de Ville)</name>
        </rtept>
        <rtept lon="4.887809" lat="45.699851">
            <name>salle Ambroise Croizat - 47, bd Ambroise Croizat</name>
        </rtept>
        <rtept lon="4.89079" lat="45.700173">
            <name>Groupe Scolaire Charréard - 8 rue Ethel et Julius Rosenberg</name>
        </rtept>
        <rtept lon="4.897133" lat="45.698331">
            <name>Foyer Max Barel - 2 rue Max Barel (face au foyer)</name>
        </rtept>
        <rtept lon="4.889772" lat="45.693982">
            <name>Groupe Scolaire Pasteur - 6 route de Corbas</name>
        </rtept>
        <rtept lon="4.889772" lat="45.693982">
            <name>Groupe Scolaire Pasteur - 6 route de Corbas</name>
        </rtept>
        <rtept lon="4.879012" lat="45.691918">
            <name>Groupe Scolaire Henri Wallon - 24 avenue Marcel Cachin</name>
        </rtept>
        <rtept lon="4.877005" lat="45.689256">
            <name>Groupe Scolaire Jean Moulin - 10 rue Vladimir Komarov</name>
        </rtept>
        <rtept lon="4.870035" lat="45.69412">
            <name>Groupe Scolaire Paul Langevin - 24 avenue de la Division Leclerc</name>
        </rtept>
        <rtept lon="4.86629" lat="45.696519">
            <name>Groupe Scolaire Anatole France - 12 avenue de la Division Leclerc</name>
        </rtept>
        <rtept lon="4.863241" lat="45.693896">
            <name>Groupe Scolaire Saint Exupéry - 37 boulevard Lénine (portail de l&#39;école Saint- Exupéry)</name>
        </rtept>
        <rtept lon="4.857383" lat="45.700433">
            <name>Bld Yves Farge (angle de la Rochette et RN7)</name>
        </rtept>
        <rtept lon="4.853944" lat="45.696341">
            <name>centre Social des Clochettes 14 rue de la Falaise</name>
        </rtept>
        <rtept lon="4.857149" lat="45.688876">
            <name>Ecole Jean Guehenno - 41 rue de la Jachère</name>
        </rtept>
        <rtept lon="4.856558" lat="45.663358">
            <name>Centre social des Maures rue des Maures</name>
        </rtept>
        <rtept lon="4.841204" lat="45.639112">
            <name>Impasse de la Verchère</name>
        </rtept>
        <rtept lon="4.857894" lat="45.671658">
            <name>Mairie Rue de la Mairie</name>
        </rtept>
        <rtept lon="4.858787" lat="45.672428">
            <name>Groupe scolaire de la Tour chemin de Beauregard</name>
        </rtept>
        <rtept lon="4.858787" lat="45.672428">
            <name>Groupe scolaire des Géraniums rue des Primevères</name>
        </rtept>
        <rtept lon="4.858787" lat="45.672428">
            <name>Groupe scolaire Champlantier Rue de Laupheim</name>
        </rtept>
        <rtept lon="4.858787" lat="45.672428">
            <name>Groupe scolaire Georges Brassens Place des Razes</name>
        </rtept>
        <rtept lon="4.898596" lat="45.670768">
            <name>Salle des Fêtes -Place Charles Jocteur-</name>
        </rtept>
        <rtept lon="4.901008" lat="45.66722">
            <name>Foyer Communal La Clairière - Avenue de Corbetta</name>
        </rtept>
        <rtept lon="4.901008" lat="45.66722">
            <name>Groupe scolaire Jacques Prévert - Impasse Jacques Prévert</name>
        </rtept>
        <rtept lon="4.9028834" lat="45.6658044">
            <name>Ecole Jean Jaurès - rue de Grange Blanche-</name>
        </rtept>
        <rtept lon="4.9007599" lat="45.6559945">
            <name>Gymnase Jean Falcot - Rue des Romanettes</name>
        </rtept>
        <rtept lon="4.936417" lat="45.690538">
            <name>G.S Edouard Herriot – 1 rue Aristide Briand</name>
        </rtept>
        <rtept lon="4.943936" lat="45.685913">
            <name>G.S Hector Berlioz - 17 rue Garibaldi</name>
        </rtept>
        <rtept lon="4.952214" lat="45.688592">
            <name>G.S Claude Farrère - 34 rue Claude Farrère</name>
        </rtept>
        <rtept lon="4.949236" lat="45.690486">
            <name>G.S François Mansart - 2 rue des frères Lumière</name>
        </rtept>
        <rtept lon="4.949173" lat="45.695228">
            <name>G.S Jules Ferry - 1 rue Rhin et Danude</name>
        </rtept>
        <rtept lon="4.94953" lat="45.696579">
            <name>G.S Honoré de Balzac - 57 rue Louis Braille</name>
        </rtept>
        <rtept lon="4.943137" lat="45.696225">
            <name>G.S Pablo Néruda - rue Henri Alain Fournier</name>
        </rtept>
        <rtept lon="4.943137" lat="45.696225">
            <name>G.S Maruis Berliet - rue Cité Berliet</name>
        </rtept>
        <rtept lon="4.879012" lat="45.691918">
            <name>Groupe Scolaire Henri Wallon - 24 avenue Marcel Cachin</name>
        </rtept>
    </rte>
</gpx>
