<?xml version="1.0" encoding="UTF-8" standalone="yes"?>
<gpx xmlns="http://www.topografix.com/GPX/1/1" version="1.1" creator="panneaux-election.fr">
    <rte>
        <rtept lon="6.315028" lat="45.653379">
            <name>Carrefour de la route de Tamié et de la route du Pontet</name>
        </rtept>
        <rtept lon="6.1060435" lat="45.6096725">
            <name>chef-lieu</name>
        </rtept>
        <rtept lon="6.09256" lat="45.650701">
            <name>chef lieu</name>
        </rtept>
        <rtept lon="6.1385975" lat="45.6110245">
            <name>chef-lieu</name>
        </rtept>
        <rtept lon="6.090076" lat="45.528809">
            <name>mairie - Saint Laurent</name>
        </rtept>
        <rtept lon="6.12628984451" lat="45.5541992188">
            <name>mairie</name>
        </rtept>
        <rtept lon="6.144998" lat="45.565009">
            <name>Albigny</name>
        </rtept>
        <rtept lon="6.1563583" lat="45.5573681">
            <name>la Gare</name>
        </rtept>
        <rtept lon="6.167723" lat="45.557316">
            <name>Pôle milti-activités - Hameau La Champagne</name>
        </rtept>
        <rtept lon="6.175724" lat="45.572213">
            <name>Miolanet</name>
        </rtept>
        <rtept lon="6.329177" lat="45.5911575">
            <name>Chef-lieu - à côté de la salle des fêtes</name>
        </rtept>
        <rtept lon="6.34357023239" lat="45.6259880066">
            <name>mairie (chef-lieu)</name>
        </rtept>
        <rtept lon="6.319946" lat="45.633507">
            <name>les Ilettes</name>
        </rtept>
        <rtept lon="6.3163035" lat="45.6435135">
            <name>chef-lieu - Place du Château</name>
        </rtept>
        <rtept lon="6.315028" lat="45.653379">
            <name>Carrefour de la route de Tamié et de la route du Pontet</name>
        </rtept>
        <rtept lon="6.31534385681" lat="45.6527175903">
            <name>mairie (chef-lieu)</name>
        </rtept>
        <rtept lon="6.3157313" lat="45.6648324">
            <name>mairie</name>
        </rtept>
        <rtept lon="6.29402112961" lat="45.6441040039">
            <name>mairie - Chef lieu</name>
        </rtept>
        <rtept lon="6.30836" lat="45.637168">
            <name>rue Joseph Piquand (vers l&#39;église)</name>
        </rtept>
        <rtept lon="6.31158018112" lat="45.6328010559">
            <name>mairie - route de la montagne</name>
        </rtept>
        <rtept lon="6.311182" lat="45.632626">
            <name>parking de la mairie</name>
        </rtept>
        <rtept lon="6.312325" lat="45.631392">
            <name>rue de la gare</name>
        </rtept>
        <rtept lon="6.30076408386" lat="45.6273155212">
            <name>mairie</name>
        </rtept>
        <rtept lon="6.278847" lat="45.615702">
            <name>chef-lieu</name>
        </rtept>
        <rtept lon="6.254434" lat="45.601408">
            <name>49 place Pierre Bonnet</name>
        </rtept>
        <rtept lon="6.198618" lat="45.580772">
            <name>place de la salle des fêtes</name>
        </rtept>
        <rtept lon="6.1866972" lat="45.5801964">
            <name>monument aux morts - place Jean Moulin</name>
        </rtept>
        <rtept lon="6.1855826" lat="45.5801448">
            <name>HLM la Gare - Villa Yette</name>
        </rtept>
        <rtept lon="6.160965" lat="45.5726419">
            <name>gymnase les Frontailles</name>
        </rtept>
        <rtept lon="6.154438" lat="45.569302">
            <name>place Charles de Gaulle</name>
        </rtept>
        <rtept lon="6.1541889" lat="45.5696127">
            <name>mairie - place de l&#39;Europe</name>
        </rtept>
        <rtept lon="6.168027" lat="45.651017">
            <name>chef-lieu devant la mairie</name>
        </rtept>
        <rtept lon="6.17808198929" lat="45.6578369141">
            <name>mairie</name>
        </rtept>
        <rtept lon="6.16785" lat="45.686457">
            <name>chef-lieu</name>
        </rtept>
        <rtept lon="6.16037082672" lat="45.6715049744">
            <name>place de la mairie - chef lieu</name>
        </rtept>
        <rtept lon="6.13950014114" lat="45.6804008484">
            <name>mairie</name>
        </rtept>
        <rtept lon="6.12950611115" lat="45.7004699707">
            <name>mairie - chef-lieu</name>
        </rtept>
        <rtept lon="6.14203977585" lat="45.7383995056">
            <name>mairie - chef lieu</name>
        </rtept>
        <rtept lon="6.105458" lat="45.7086315">
            <name>mairie - chef lieu</name>
        </rtept>
        <rtept lon="6.084265" lat="45.7156329">
            <name>mairie - salle polyvalente - Bourchigny</name>
        </rtept>
        <rtept lon="6.05769491196" lat="45.6831245422">
            <name>mairie</name>
        </rtept>
        <rtept lon="6.060076" lat="45.6782805">
            <name>mairie - chef lieu</name>
        </rtept>
        <rtept lon="6.0112695" lat="45.6214445">
            <name>mairie - chef lieu</name>
        </rtept>
        <rtept lon="5.9865686" lat="45.5854316">
            <name>mairie</name>
        </rtept>
        <rtept lon="5.971732" lat="45.585484">
            <name>Plateau de Monterminod</name>
        </rtept>
        <rtept lon="5.976036" lat="45.571592">
            <name>rue Sainte-Thérèse</name>
        </rtept>
        <rtept lon="5.977765" lat="45.570894">
            <name>sortie du Chapitre - rue Georges Lamarque</name>
        </rtept>
        <rtept lon="5.97794008255" lat="45.5710983276">
            <name>mairie</name>
        </rtept>
        <rtept lon="5.981704" lat="45.570139">
            <name>place de Longefand</name>
        </rtept>
        <rtept lon="5.9775074" lat="45.5673492">
            <name>Clos Gaillard</name>
        </rtept>
        <rtept lon="5.946013" lat="45.5730326">
            <name>carrefour rue de la Croix</name>
        </rtept>
        <rtept lon="5.943681" lat="45.571416">
            <name>rue de la Martinière - vers lotissement &quot;Les Maronniers&quot;</name>
        </rtept>
        <rtept lon="5.9375389" lat="45.5746347">
            <name>Rue de Gonrat</name>
        </rtept>
        <rtept lon="5.929023" lat="45.569072">
            <name>salle polyvalente Cœur de Mérande - avenue Dr Desfrançois</name>
        </rtept>
        <rtept lon="5.9268679" lat="45.5673061">
            <name>maison des associations - rue St François</name>
        </rtept>
        <rtept lon="5.9268679" lat="45.5673061">
            <name>maison des associations - rue St François</name>
        </rtept>
        <rtept lon="5.926094" lat="45.5645684">
            <name>école primaire Pasteur - passage Michelet</name>
        </rtept>
        <rtept lon="5.916754" lat="45.566058">
            <name>Salle Grenette - rue de la Ronce</name>
        </rtept>
        <rtept lon="5.9206752" lat="45.566467">
            <name>mairie- place de l&#39;Hôtel de Ville</name>
        </rtept>
        <rtept lon="5.920466" lat="45.563418">
            <name>école Caffe – 39 place Caffe</name>
        </rtept>
        <rtept lon="5.9185767" lat="45.5640083">
            <name>Batiment Descartes - place René Vair</name>
        </rtept>
        <rtept lon="5.917088" lat="45.559429">
            <name>Le Séquoia – 170 rue Charles Baudelaire</name>
        </rtept>
        <rtept lon="5.9126565" lat="45.555047">
            <name>La Jacobelle - rue de la mairie</name>
        </rtept>
        <rtept lon="5.918285" lat="45.551097">
            <name>Route des Entremonts</name>
        </rtept>
        <rtept lon="5.9092401" lat="45.5394804">
            <name>mairie</name>
        </rtept>
        <rtept lon="5.8940405" lat="45.5381485">
            <name>barrière école, en bordure de la RD7</name>
        </rtept>
        <rtept lon="5.907854" lat="45.555968">
            <name>écoles - rue des écoles</name>
        </rtept>
        <rtept lon="5.902711" lat="45.560809">
            <name>salle J.B. Carron – 346 rue Oradour sur Glane</name>
        </rtept>
        <rtept lon="5.897747" lat="45.559893">
            <name>rue de la Poterie (Ateliers des Arts)</name>
        </rtept>
        <rtept lon="5.8940615" lat="45.5601585">
            <name>avenue de Corinthe (école de la forgerie)</name>
        </rtept>
        <rtept lon="5.865133" lat="45.5456945">
            <name>mairie - Chef lieu</name>
        </rtept>
        <rtept lon="5.844143" lat="45.567147">
            <name>Chef lieu</name>
        </rtept>
        <rtept lon="5.89373" lat="45.562201">
            <name>rue de l&#39;Epine</name>
        </rtept>
        <rtept lon="5.890839" lat="45.569834">
            <name>rue Claude Debussy (près de l&#39;école du Château)</name>
        </rtept>
        <rtept lon="5.8984876" lat="45.5754875">
            <name>groupe scolaire Jean Rostand - Bissy - allée Jean Rostand</name>
        </rtept>
        <rtept lon="5.8984876" lat="45.5754875">
            <name>groupe scolaire Jean Rostand -Bissy - avenue Général Cartier</name>
        </rtept>
        <rtept lon="5.900885" lat="45.568039">
            <name>rue de la Digue (jeu de boules)</name>
        </rtept>
        <rtept lon="5.9110586" lat="45.574933">
            <name>école primaire - Chambéry le Vieux - rue du Cdt Bulle</name>
        </rtept>
        <rtept lon="5.9109472" lat="45.5745342">
            <name>école maternelle du stade - avenue Alsace Lorraine</name>
        </rtept>
        <rtept lon="5.9053209" lat="45.5884735">
            <name>centre socio-culturel de Chambéry le Haut - rue du Pré de l&#39;Ane</name>
        </rtept>
        <rtept lon="5.9210225" lat="45.580841">
            <name>maison de quartier Chantemerle - chemin de Chantemerle</name>
        </rtept>
        <rtept lon="5.914604" lat="45.59001">
            <name>salle Pugnet - avenue d&#39;Annecy</name>
        </rtept>
        <rtept lon="5.9200772" lat="45.5913681">
            <name>Le Scarabée - avenue Daniel Rops</name>
        </rtept>
        <rtept lon="5.9081542" lat="45.6210976">
            <name>square François Jarret</name>
        </rtept>
        <rtept lon="5.943405" lat="45.6109195">
            <name>salle polyvalente</name>
        </rtept>
        <rtept lon="5.946379" lat="45.591969">
            <name>Intersection La Clusaz</name>
        </rtept>
        <rtept lon="5.9428685" lat="45.582634">
            <name>gymnase du chef-lieu - route de Vérel</name>
        </rtept>
        <rtept lon="5.941367" lat="45.5827985">
            <name>porte des Oublis - rue centrale</name>
        </rtept>
        <rtept lon="5.941367" lat="45.5827985">
            <name>parking salle polyvalente - rue de l&#39;église</name>
        </rtept>
        <rtept lon="5.939806" lat="45.580904">
            <name>croisement Route de Saturnin et chemin du Rocher</name>
        </rtept>
        <rtept lon="5.955933" lat="45.57825">
            <name>Place du commerce</name>
        </rtept>
        <rtept lon="5.9599675" lat="45.579664">
            <name>Salle des fêtes</name>
        </rtept>
        <rtept lon="5.966259" lat="45.576895">
            <name>Chemin du Violet</name>
        </rtept>
        <rtept lon="5.9764988" lat="45.5819199">
            <name>Parking de Leysse</name>
        </rtept>
        <rtept lon="5.985947" lat="45.575627">
            <name>allée des Garennes</name>
        </rtept>
        <rtept lon="6.0083489418" lat="45.567363739">
            <name>chef lieu - mairie</name>
        </rtept>
        <rtept lon="6.0556116" lat="45.5331248">
            <name>bâtiment mairie / école - chef lieu</name>
        </rtept>
        <rtept lon="6.034521" lat="45.566732">
            <name>chef lieu</name>
        </rtept>
        <rtept lon="6.02891" lat="45.591154">
            <name>chef-lieu</name>
        </rtept>
        <rtept lon="6.315028" lat="45.653379">
            <name>Carrefour de la route de Tamié et de la route du Pontet</name>
        </rtept>
    </rte>
</gpx>
